@id,@lat,@lon,name,tourism
8594872,-33.8232154,151.2984186,Burragula Lookout,viewpoint
12219054,-33.8345981,151.078361,Shipwreck Lookout,viewpoint
13887214,-33.8597064,151.222565,Mrs Macquarie's Chair,attraction
17022878,-31.4615805,152.930018,Sea Acres Rainforest Centre,attraction
17022885,-31.4654563,152.919445,Transit Hill Lookout,viewpoint
17022899,-31.4756057,152.9372555,Tacking Point Lighthouse,attraction
17024614,-31.4426085,152.9193687,Roto House,attraction
17027559,-31.4430557,152.9195243,Koala Hospital,attraction
18261380,-34.0246314,151.1825435,Quibray Bay Viewing Platform,viewpoint
18818847,-33.9175917,151.262232,,viewpoint
19972125,-33.8369553,151.1889252,,viewpoint
19975279,-33.8409667,151.189479,,viewpoint
20920290,-34.2181612,151.002319,,viewpoint
20920341,-34.2114668,151.0105813,Otford Lookout,viewpoint
20958880,-33.8730636,151.1925718,Sydney Fish Market,attraction
20959057,-33.8620845,151.2122831,Justice & Police Museum,museum
20973765,-33.7327197,150.3120221,Echo Point Lookout,viewpoint
20973814,-33.731774,150.2994556,Eagle Hawk Lookout,viewpoint
20973830,-33.7320558,150.2957367,Landslide Lookout,viewpoint
20973835,-33.7306012,150.2966503,Hilda's Lookout,viewpoint
20973854,-33.7274512,150.2925986,Narrow Neck Lookout,viewpoint
20976029,-33.7275629,150.317261,Honeymoon Lookout,viewpoint
20976363,-33.7218797,150.3224617,Leura Cascades,attraction
20976632,-33.7257287,150.3297108,Leuralla Public Gardens Amphitheatre,viewpoint
20979845,-33.8794698,151.2797492,,viewpoint
21266664,-33.72802,150.3740633,Wentworth Falls,attraction
21305293,-27.5811046,151.9941344,Tobruk Memorial Drive Lookout,viewpoint
21312193,-27.5577992,151.9778542,,viewpoint
21312217,-27.5582525,151.9775747,Webb Park Look Out,viewpoint
21321457,-27.5784112,151.9865442,,viewpoint
21384335,-28.5181492,153.1587225,,viewpoint
21397908,-33.8753099,151.2222336,Coca-Cola Billboard,attraction
21404997,-33.6434001,151.3336757,,viewpoint
21462139,-27.5499795,151.9973387,,viewpoint
21462189,-27.5504324,151.9977181,,viewpoint
25840776,-33.7353563,150.3149627,Three Sisters,attraction
25843272,-33.8675516,151.1995619,Darling Harbour,attraction
25850237,-34.671847,150.8631648,Kiama Blowhole,attraction
25954362,-32.7157437,152.1866836,Tomaree Head lookout,viewpoint
25954365,-32.7165839,152.1866591,,viewpoint
25954367,-32.7168589,152.186814,,viewpoint
25954370,-32.7167041,152.1869803,,viewpoint
25954372,-32.71681,152.1871765,,viewpoint
25960719,-32.2165896,152.5629667,Cape Hawke lookout,viewpoint
25984265,-29.1533487,153.2981964,New Italy Museum,museum
26010687,-28.6401954,153.6343982,,viewpoint
26525031,-33.8332949,151.2805203,,viewpoint
26525697,-33.8640638,151.2697463,,viewpoint
28110524,-34.1769715,151.0603082,,viewpoint
28190432,-34.130256,151.1289468,,viewpoint
28190509,-34.115973,151.147521,,viewpoint
28892309,-33.8407952,151.2846007,,viewpoint
30395415,-24.2594203,116.7865696,Emu Hill Lookout,viewpoint
30432691,-24.320626,116.8001879,Rock Carvings,attraction
30480007,-15.4508458,128.1197072,Five Rivers Lookout,viewpoint
30606318,-41.1655656,146.3663418,,viewpoint
31432736,-13.3545699,131.1300683,Robin Falls,viewpoint
31432996,-13.1028108,130.8441475,Magnetic Termite Mounds,attraction
31433268,-13.0986082,130.7837671,,viewpoint
31433498,-13.0987169,130.7834077,Florence Falls,viewpoint
31433499,-13.1128334,130.7857968,Buley Rockhole,viewpoint
31435738,-37.7971601,145.0010882,Dights Falls,attraction
31441885,-13.0685545,130.712043,Bamboo Creek Tin Mine,viewpoint
31931568,-33.6162674,151.1278061,Barnett Lookout,viewpoint
32109727,-33.7769671,151.1406211,,viewpoint
32109751,-33.7806144,151.1396547,,viewpoint
32661116,-34.7756122,150.6984646,Berry Museum,museum
33566385,-30.3942691,115.0806996,Molah Hill Lookout,viewpoint
33616122,-28.6385613,153.6363335,Cape Byron Lighthouse,attraction
34918542,-34.4039221,150.8558981,,viewpoint
34918543,-34.4030541,150.8568415,,viewpoint
34918552,-34.4025111,150.857509,Victoria Lookout,viewpoint
34918553,-34.4022681,150.8572208,,viewpoint
35081149,-34.8003891,150.5773933,Cambewarra Lookout,viewpoint
35588924,-37.3076994,145.189617,Strath Creek Falls,viewpoint
35850501,-35.01057,150.8460684,,viewpoint
35895103,-35.0848139,150.8180334,,viewpoint
36230395,-28.7731484,114.61607,HMAS Sydney Memorial,attraction
37993769,-18.7487265,126.1087862,,viewpoint
38453483,-16.2618232,128.3132457,,viewpoint
38897981,-15.4875353,128.123656,The Big Crocodile,attraction
42024393,-31.9904114,115.7870746,Freshwater Bay Museum,museum
42454857,-32.2165016,152.5630976,Cape Hawke Lookout,attraction
54001270,-23.7501893,132.9792227,,viewpoint
54001285,-23.7501535,132.9790024,,viewpoint
54001443,-23.7337023,132.8687574,,viewpoint
59141009,-41.6846445,145.9513044,Cradle Mountain,viewpoint
60073390,-33.4037314,150.9835235,Hawkins Lookout,viewpoint
60436753,-19.2573829,146.8222433,Museum of Tropical Queensland,museum
63040306,-33.5758363,150.3386927,Walls Lookout,viewpoint
73976819,-25.9856882,114.298346,Gladstone Scenic Lookout,viewpoint
77923019,-23.7495217,132.9787835,Serpentine Gorge,attraction
77923025,-23.7338869,132.8695081,Ochre Pits,attraction
77923044,-23.6267492,132.7283828,Ormiston Gorge,attraction
77962027,-23.6771465,132.6693125,Mount Sonder Lookout,viewpoint
77988795,-24.251881,131.58085,,viewpoint
81311142,-32.9986005,148.262423,Parkes Observatory,attraction
88239176,-12.5571973,131.2978032,Pandanus Lookout,viewpoint
88638776,-34.3090801,149.9670859,,viewpoint
88894686,-17.3507176,123.6699281,Boab Prison Tree,attraction
97177647,-37.863073,145.19601,,viewpoint
97610242,-30.92285,153.0874871,Smoky Cape,attraction
108130403,-33.7276337,150.3030942,Katoomba Falls Lookout,viewpoint
110899207,-38.4930503,144.8903568,,viewpoint
110900560,-38.493404,144.8882508,,viewpoint
110919044,-38.3507071,144.9474975,Franklin Point,viewpoint
110919115,-38.3510965,144.9486381,Murrays Lookout,viewpoint
110919163,-38.3540309,144.94711,Chapmans Point,viewpoint
113382243,-30.9994769,150.2633177,Porcupine Lookout,viewpoint
117040893,-33.6282945,150.3111732,Govetts Leap,attraction
123375764,-42.915235,147.2487276,The Springs,attraction
123380303,-42.9173225,147.2508954,,viewpoint
123557767,-33.3442759,115.6461885,Miniature Railway,attraction
125199783,-33.7780642,151.2133909,,viewpoint
125207388,-33.7667575,151.2283793,,viewpoint
125207397,-33.7672797,151.2288071,,viewpoint
125208410,-33.7732128,151.2312694,,viewpoint
125208435,-33.777918,151.2329787,,viewpoint
125300346,-42.8946995,147.2384423,,viewpoint
127549705,-37.7853006,145.0133239,Fairfield Boathouse,attraction
127749780,-35.124695,150.7642157,Governors Head Lookout,viewpoint
130018662,-33.772542,151.2371082,The Rock,attraction
130018671,-33.7706601,151.2365132,Three steps,attraction
134509291,-33.8464487,151.0784805,Sundial,attraction
134597275,-34.6478191,150.4824664,Fitzroy Falls Lookout,viewpoint
134626162,-34.3353917,150.4968456,,attraction
134659606,-33.730428,150.2894619,Mount Rennie Tunnel entrance,attraction
136140911,-26.1522827,113.1560635,Steep Point,attraction
148961906,-32.1262427,116.2993818,Mt Dale Lookout,viewpoint
159087319,-35.7531889,150.1629232,Eurobodalla Regional Botanic Garden,attraction
166927395,-11.2248831,142.1166891,Vrilya Point,viewpoint
172920960,-37.5931395,149.7271263,WWII Bunker Museum,museum
174820087,-37.9509878,144.4246977,Flinders Peak,viewpoint
175674045,-33.6413553,151.1783018,,viewpoint
175678807,-33.6681705,151.1746065,Slades Lookout,viewpoint
176237135,-32.9605801,151.7392478,,viewpoint
176470019,-33.7045808,150.4300437,Echo Bluff,viewpoint
178361238,-37.8433441,146.0480151,Amphitheatre Falls,viewpoint
179245698,-36.4643904,148.2698231,Lake Cootapatamba Lookout,viewpoint
182115796,-24.2503385,131.5782835,,viewpoint
182234287,-25.2897183,130.738706,,viewpoint
182296704,-25.2956837,130.7072343,Olgas Sunset Viewing Area,viewpoint
182308871,-25.3510078,130.786932,Kata Tjuta Dune Viewing,viewpoint
182329712,-25.2562169,130.9815211,Ewing Lookout,viewpoint
185593840,-28.0620247,153.4407414,North Nobby,attraction
185863626,-28.0709657,153.4450061,South Nobby Headland,viewpoint
193175524,-35.6363985,148.9395256,,viewpoint
193751294,-28.2429714,153.2650971,Best of All Lookout,viewpoint
194199476,-27.3770312,153.12788,Viewing Platform BNE Runway 01R/19L,viewpoint
196760401,-33.8455796,151.0657041,Sydney Olympic Cauldron,attraction
197393910,-28.0919829,153.4592569,Tumgun Lookout,viewpoint
197423108,-28.181143,153.5351163,Razorback Hill,viewpoint
203233608,-27.4318482,153.0516896,Bartleys Hill Lookout,viewpoint
212965527,-27.0654626,152.781175,Dahmongah Lookout Park,viewpoint
240381472,-35.0018402,116.5337293,Mandalay Beach,viewpoint
240381524,-34.9990983,116.538947,Banksia Hut,attraction
240571470,-33.6964835,151.3122301,,viewpoint
240571485,-33.6943517,151.3114713,,viewpoint
241895324,-33.7528094,150.6121388,Wascoe Siding Miniature Railway,attraction
243435171,-33.7646024,150.623775,Glenbrook Native Plant Reserve,attraction
243458350,-33.6508314,151.0941193,,viewpoint
243461730,-33.5417564,151.1948971,Deerubbin Lookout,viewpoint
243665907,-37.6595664,144.3579912,Eastern Viewpoint,viewpoint
243837809,-33.7552903,150.4857709,Linda Rock,viewpoint
243837950,-33.7445732,150.3867232,Kings Table,viewpoint
243838465,-33.7260782,150.3720236,Wentworth Falls Lookout,viewpoint
243838467,-33.7275419,150.371199,Eagles Nest Lookout - 50m,viewpoint
243838468,-33.7275577,150.374187,Fletchers Lookout,viewpoint
243838470,-33.7274021,150.3714369,Princes Rock Lookout,viewpoint
243935133,-30.3637436,152.7289066,Dorrigo Rainforest Centre,attraction
243987798,-33.7736026,120.0401205,No Tree Hill,viewpoint
244301435,-10.6872217,142.5315474,,viewpoint
244312824,-33.726797,150.3659747,Den Fenella Lookout,viewpoint
244312898,-33.7261146,150.3648027,Breakfast Point Lookout,viewpoint
244312924,-33.7220143,150.3616966,Lyrebird Lookout,viewpoint
244314455,-33.7210189,150.3597313,Empress Lookout,viewpoint
244314534,-33.7273904,150.3697677,,viewpoint
244316075,-33.7289391,150.3556663,Moya Point Lookout,viewpoint
244316081,-33.7287063,150.3541062,Gladstone Lookout,viewpoint
244467133,-33.8583952,121.0400677,Skippy Rock,viewpoint
244889466,-37.9261016,144.7929218,Point Cook Homestead,attraction
244967512,-33.8612549,151.2106581,Cahill Expressway Lookout,viewpoint
245256854,-33.8188683,151.2963862,,viewpoint
245256864,-33.819647,151.2973315,,viewpoint
245284927,-33.8016055,151.3003636,,viewpoint
245284958,-33.8018242,151.3005078,,viewpoint
245285583,-33.8005747,151.2996515,,viewpoint
245285663,-33.8003472,151.2994006,,viewpoint
245285953,-33.8001213,151.2989891,,viewpoint
245285964,-33.7995378,151.298165,,viewpoint
245285978,-33.7993445,151.2978168,,viewpoint
245382089,-14.8492584,144.1679285,Red Lily Lagoon,viewpoint
246295257,-33.6181837,151.2585422,,viewpoint
246295264,-33.5884349,151.2674332,,viewpoint
246295964,-33.5927705,151.267662,,viewpoint
246299476,-33.5920855,151.299051,,viewpoint
246356702,-33.5977594,151.2641305,,viewpoint
246580757,-30.3096524,153.1352545,Beacon Hill Lookout,viewpoint
247026066,-33.7533765,150.6366201,Marges Lookout,viewpoint
247286455,-30.4886437,152.4102309,Point Lookout,viewpoint
247287226,-30.4765888,152.3210293,L.P. Dutton Trout Hatchery,attraction
247296453,-35.2918939,149.1296207,Captain Cook Memorial Jet,attraction
247298206,-33.781258,151.2950975,,viewpoint
247298603,-33.7416412,151.3150158,Long Reef Point Lookout,viewpoint
247299457,-33.7033218,151.2889116,,viewpoint
247865890,-35.5153172,148.9214335,Corin Forest Mountain Resort,attraction
247869715,-35.4401907,148.9428121,Tidbinbilla Nature Reserve,attraction
247878801,-33.7003354,151.1758573,Endlicher Point,viewpoint
247879254,-33.7874236,151.1467366,,viewpoint
247879296,-33.7916813,151.1552278,,viewpoint
248815921,-35.4753807,149.0469212,Lambrigg Lookout,viewpoint
249089375,-33.8523085,151.2462914,Artillery,attraction
250302703,-33.715589,150.357345,Edinburgh Castle Rock,viewpoint
250430074,-41.4284501,147.1409141,Queen Victoria Museum & Art Gallery,museum
250989717,-37.5060581,146.6879728,Bennison Lookout,viewpoint
250993472,-38.1373338,146.4801838,,viewpoint
251143094,-37.6874192,145.4570254,Oak Ridge Vineyard,attraction
251144814,-36.4536694,146.4286703,Brown Brothers Vineyard,attraction
251155138,-37.0574594,147.2069415,Mount Tabletop (Square Mount),viewpoint
251156821,-37.0529987,147.2580426,Precipice Plain Lookout,viewpoint
251157553,-37.0334853,147.2416515,Carmichael Falls,viewpoint
251453041,-38.458697,145.2877717,Mangrove Lookout,viewpoint
251460697,-37.3021095,146.7849053,Dimmick Lookout,viewpoint
251876418,-35.1908726,149.0848153,Federation Square,attraction
252033066,-37.2614804,150.0495033,,attraction
252174133,-30.5957343,151.7997968,Old dam wall,viewpoint
252227414,-33.4531042,151.3907538,Warriwarry Lookout,viewpoint
252339648,-30.3049026,153.1541448,Eastern Side Lookout,viewpoint
252540475,-33.8704904,123.0009952,Dolphin Cove Viewing platform,viewpoint
252590678,-33.6798546,151.027883,The Porter Scenic Lookout,viewpoint
253016815,-34.7004763,135.8285028,Winter Hill Lookout,viewpoint
253147982,-35.5929487,149.4424643,,viewpoint
253407181,-34.2059277,150.5697834,NSW Rail Museum,attraction
253423604,-33.7387524,151.3123107,,viewpoint
253725403,-33.700868,149.8540065,Oberon Tarana Heritage Railway,museum
254587400,-16.5340109,145.3814722,,viewpoint
254876731,-36.8674025,146.4376319,Paradise Falls view,viewpoint
255957553,-36.412224,148.6056868,,viewpoint
255985868,-34.6870754,150.2975727,Beauchamps Cliffs,viewpoint
255985869,-34.6875602,150.296275,Bonnie View,viewpoint
255985870,-34.6848999,150.2894313,Echo Point Lookout,viewpoint
256391553,-34.6875319,150.2910235,Mount Carnarvon Lookout,viewpoint
256391658,-34.681423,150.302732,Sunrise Point,viewpoint
256391665,-34.6819464,150.3015554,Grand Canyon Lookout,viewpoint
256391736,-34.6802715,150.3046775,Tooths Lookout,viewpoint
256392081,-34.6749529,150.2927396,Erith Coal Mine,viewpoint
256392134,-34.6707599,150.3135397,Amphitheatre,viewpoint
256392327,-34.6703422,150.3230951,Mark Morton Lookout,viewpoint
256392461,-34.6696386,150.3230131,Riverview Lookout,viewpoint
256401689,-24.3953314,151.0456852,,viewpoint
256516030,-39.0012264,146.3015657,Darby Saddle,attraction
256519048,-38.9986242,146.2855369,Sparkes Lookout,viewpoint
256520070,-38.9926013,146.2792926,Lookout Rocks,attraction
256520072,-38.9937872,146.2534326,Tongue Point,attraction
257498434,-39.0377486,146.3058828,Pillar Point,viewpoint
257688107,-34.4397469,150.7921558,Mt Kembla Lookout,viewpoint
257707357,-34.1722112,151.0630761,,viewpoint
258424461,-34.2681171,146.074261,Sir Dudley de Chair Lookout,viewpoint
258424959,-34.2675639,146.0751794,Hermit's Cave,attraction
258428610,-33.9093835,147.9547049,Ben Hall's Cave,attraction
258430138,-33.9126489,147.9484343,Seatons Farm,attraction
259016306,-34.4910002,150.9157981,Hill 60,viewpoint
259414642,-43.0878941,147.0132798,School of Wooden Boat Building,attraction
259415761,-43.2693672,147.3489079,Truganini Lookout,viewpoint
260079475,-33.4773605,150.2208361,Zig Zag Railway,attraction
260133763,-33.7607204,151.1897313,,viewpoint
260134224,-33.7607394,151.1843797,,viewpoint
260589430,-34.4474781,116.0569315,Gloucester Tree,attraction
260591287,-34.4083724,116.0286743,Big Brook Dam,attraction
260715518,-37.8647452,144.2448655,Outlook,viewpoint
262547538,-26.6557512,152.645472,Booloumba Lookout,viewpoint
263675230,-37.6483158,145.3870183,Gulf Station,attraction
263682386,-34.4241398,150.9019575,,attraction
263845696,-33.7309927,150.3105089,Kedumba View,viewpoint
263845702,-33.7305309,150.3096578,,viewpoint
263845706,-33.7303169,150.3088832,Lady Darley Lookout,viewpoint
263845712,-33.7300986,150.3080884,Allambie Lookout,viewpoint
263845718,-33.729963,150.3076375,Allambie Lookout,viewpoint
263845747,-33.7275039,150.3044855,Duke & Duchess of York Lookout,viewpoint
263853370,-33.6319453,150.313931,Barrow Lookout,viewpoint
263853408,-33.6332896,150.3159212,,viewpoint
263853724,-33.6456965,150.3253738,Valley View Lookout,viewpoint
263853747,-33.6468138,150.3263141,Evans Lookout (Upper),viewpoint
263865767,-33.7225051,150.3211013,Bridal Veil Lookout,viewpoint
263865828,-33.7344703,150.314632,Oreades Lookout,viewpoint
263865831,-33.7347996,150.3148168,Lady Game Lookout,viewpoint
264002271,-34.7634688,150.0551135,Long Point Lookout,viewpoint
264003501,-34.798087,150.0081759,,viewpoint
264003508,-34.7986407,150.0189649,Bungonia Lookdown,viewpoint
264007821,-18.2502999,127.7228161,China Wall,attraction
264018004,-18.2261306,127.7587634,Caroline Pool,attraction
264028197,-40.7626458,145.3061441,Pinmatik / Rocky Cape Lookout,viewpoint
264028217,-40.7638025,145.2995376,Tatlows Beach Lookout,viewpoint
264028219,-40.762968,145.2990331,Highfield Lookout,viewpoint
264170812,-37.7382638,145.1621877,,viewpoint
264201779,-38.1294503,146.4401589,Peterson's Lookout,viewpoint
264201798,-38.1298419,146.4400902,Peterson's Lookout,viewpoint
264206378,-36.7181196,147.132108,Sullivan's Lookout,viewpoint
265022296,-39.0287473,146.3164234,Whale Rock,viewpoint
265550001,-34.6842375,150.2961207,Wishing Well (Natural Feature),attraction
265659669,-37.010207,144.0526654,Carmans Tunnel,attraction
265851927,-33.5363268,151.312154,,viewpoint
266152948,-37.9170513,145.3235979,,gallery
266155502,-37.91651,145.3345789,Burrinja,gallery
266737568,-37.8723815,145.3193837,One Tree Hill,attraction
266738718,-37.9082279,145.36513,,attraction
266757775,-34.9022781,138.7070832,Deep View Lookout,viewpoint
266946727,-38.3934611,146.5590593,Mount Tassie Lookout,viewpoint
267102664,-33.3279877,134.7997417,,viewpoint
267619832,-33.8518399,151.2471638,,viewpoint
267812553,-33.6551485,150.3311158,Point Pilcher,viewpoint
267851998,-34.386874,136.1109599,,viewpoint
267900096,-35.7863734,137.7781221,Strawbridge Point,attraction
267901467,-35.9935025,137.3184005,Seal Bay,attraction
267902113,-35.7526858,136.5905992,Cape Borda,attraction
267902114,-35.7473918,136.628708,Scott Cove,attraction
267902369,-35.6558255,137.1148062,King George Beach Shack Site,attraction
267902555,-35.9800986,136.9058982,Kelly Hill Caves,attraction
267904199,-36.0632077,136.7047395,Admirals Arch,attraction
267904440,-36.0481873,136.7571595,Remarkable Rocks,attraction
268211995,-30.9637854,138.6384729,Hannigan Gap,attraction
268213603,-30.993972,138.7130826,Artimore,attraction
268218334,-31.4718356,138.6972043,Hucks Lookout,viewpoint
268390383,-33.8443455,150.5856797,Nepean Lookout,viewpoint
268437941,-36.1392853,139.6426802,Pipe Clay Lake,attraction
268439617,-36.2586384,139.707405,Chinaman's Well,attraction
268577358,-34.7761697,135.9352086,Flinders Monument,attraction
268944528,-30.6669039,146.3962416,Byrock Rock Hole,attraction
268964303,-33.8407732,151.1320306,,viewpoint
268964306,-33.8411391,151.1301684,,viewpoint
269291347,-43.1396934,148.0053257,,viewpoint
269463766,-33.0830452,138.2353766,King Tree,attraction
270424594,-37.0583378,144.2239474,Buda Historic Home and Garden,attraction
270800741,-14.9154407,145.6903158,Challenger Bay,attraction
270802346,-14.9280802,145.6772796,Pixie Gardens,attraction
270802347,-14.929769,145.6755024,Pixie Pinnacle,attraction
270802348,-14.663675,145.6634652,Cod Hole,attraction
270802353,-15.5012397,145.7882636,Steve's Bommie,attraction
270802354,-15.5125869,145.7768157,Flare Point,attraction
270802401,-14.875091,145.689982,Lighthouse Bommie,attraction
270993431,-33.8021808,151.3031233,Blue Fish Wall,attraction
271104530,-31.9699631,116.0593013,Kalamunda History Village,museum
271672018,-33.7127383,150.633548,Warrimoo Lookout,viewpoint
271824235,-31.9702107,116.0546493,Stirk Cottage,museum
271864224,-34.0402476,151.1650275,,viewpoint
271875207,-34.0263407,151.1648475,Connell Hill,viewpoint
272305085,-33.8529539,151.1715912,,viewpoint
272305862,-33.8533958,151.1742091,,viewpoint
273117801,-33.7633368,150.2941149,The Ruined Castle,attraction
273211954,-34.9542748,138.6778941,Sugarloaf Hill,viewpoint
274233154,-32.0077286,116.1354448,Perth Observatory,attraction
274413510,-37.0064552,144.0478148,,viewpoint
274521487,-33.8681908,151.2190348,,viewpoint
275913933,-33.6994868,150.5689058,Braemar Gallery,gallery
276301629,-35.4536121,148.9349102,Xanthorrea forrest,attraction
276301646,-35.4586751,148.9478136,Gibraltar Peak,attraction
276312918,-33.7988994,151.0939207,Terry Road Lookout,viewpoint
276341330,-33.7234465,150.3176978,Lomandra Lookout,viewpoint
276570210,-31.8306681,115.7484235,William Marmion Monument,attraction
277105881,-33.6672067,150.6518669,"Hawkesbury Lookout, Yellomundee Regional Park",viewpoint
277654317,-31.8958428,116.7591439,,viewpoint
277695240,-31.8969824,116.7722668,Balladong Farm,museum
277695396,-31.8938625,116.766252,Old Flour Mill,attraction
277751545,-31.8529503,115.7557138,,viewpoint
277751613,-31.8528847,115.7554477,,museum
277752464,-31.8582868,115.7604602,Henderson Environmental Centre,attraction
277918149,-33.7238577,151.2904697,,viewpoint
278367417,-30.409944,152.253915,Woolpack Rocks,viewpoint
279053913,-27.3894173,153.0047633,Downfall Creek Bushland Centre,attraction
281857983,-32.7310309,152.1312572,Gan Gan Hill lookout,viewpoint
282149986,-16.8476558,145.6950511,Skyrail Smithfield Terminal,attraction
282182885,-25.3001768,130.7361654,Kata Tjuta Viewing Area,viewpoint
282182986,-25.2918573,130.7394789,,viewpoint
282182999,-25.2920418,130.7416586,Karingana Lookout,viewpoint
282219476,-25.3300488,130.9990732,Uluru Coach Sunset Viewing Area,viewpoint
282326264,-38.518049,145.1176948,Seal Rocks Lookout,viewpoint
282326309,-38.5188915,145.1196112,,viewpoint
282609703,-13.8271676,131.8320365,Enterprise Pit Mine Lookout,viewpoint
282609712,-13.4324253,132.4184312,,viewpoint
282609713,-13.43181,132.4182052,,viewpoint
282609718,-13.4832731,132.2489999,Bukbukluk Lookout,viewpoint
282610866,-12.8974229,132.5155853,Yellow Water Viewing Platform,viewpoint
282610989,-12.8604948,132.7928005,Nawurlandja Lookout,viewpoint
282613874,-12.8662865,132.8127819,Nawurlandja Lookout,viewpoint
282613889,-12.8645947,132.81584,Gunnwarrdehwarrdde Lookout,viewpoint
282624923,-12.4086061,132.9538815,Nadab Lookout,viewpoint
282889589,-30.5207934,115.0771456,,viewpoint
283064926,-37.491945,145.8765925,Melbourne Lookout,viewpoint
283259511,-30.737676,152.033969,,viewpoint
283932720,-21.6948981,139.5140915,,museum
284581774,-35.784155,147.963704,Mannus Lookout,viewpoint
286276766,-16.6463621,145.5655397,Rex Lookout,viewpoint
286442800,-16.4762756,145.3399707,Yulmbarril,attraction
286442832,-16.4696644,145.3295838,Mossman River Lookout,viewpoint
286442908,-16.4707176,145.3310544,,viewpoint
286463585,-16.2458582,145.4360408,Mount Alexandra Lookout,viewpoint
286463652,-16.2405799,145.4333328,,viewpoint
286463712,-16.2412127,145.4335443,,viewpoint
286463713,-16.2388094,145.432868,Jindalba Board Walk,attraction
286671760,-33.7751393,151.2934212,Brian Green Lookout,viewpoint
286716903,-16.0765917,145.4721362,Kulki Lookout,viewpoint
286716904,-16.0773219,145.4714774,,viewpoint
286722923,-16.9243035,145.3601541,,attraction
286731107,-17.2459437,145.6402342,Twin Kauri Trees,attraction
286894292,-33.4557568,116.0071144,Mica Mine,attraction
286995506,-17.1775099,145.6587597,Cathedral Fig Tree,attraction
288760426,-23.4081145,147.6895611,Miner's Heritage Walk-in Mine,attraction
289287729,-29.0221586,167.9714313,Old Whaling Station,attraction
289546011,-38.4001799,144.1651545,,viewpoint
289560328,-29.0140547,167.9456606,,viewpoint
289561099,-29.0071764,167.9553723,,viewpoint
290556969,-19.3426475,146.7811726,Rotary Lookout,viewpoint
290559862,-19.2574505,146.8042551,,viewpoint
290559864,-19.2577979,146.8044238,,viewpoint
290559867,-19.2581413,146.8044018,Hynes Lookout,viewpoint
290559870,-19.2582059,146.8051009,,viewpoint
290559872,-19.2582531,146.805321,,viewpoint
290652950,-38.3978716,144.2007602,,viewpoint
290653290,-38.3965984,144.2036202,,viewpoint
290653358,-38.3969626,144.2046643,,viewpoint
290655032,-38.4215192,144.1788118,,viewpoint
290655052,-38.421304,144.1793718,,viewpoint
290951002,-38.3884201,144.2010708,,viewpoint
290951020,-38.4224516,144.1785122,,viewpoint
290951096,-38.4188443,144.1801299,,viewpoint
291675297,-29.0158173,167.9368765,Mount Pitt,viewpoint
291963459,-34.6202422,150.7094937,Illawarra Fly,attraction
291992021,-34.6177678,150.7118431,Knights Tower,viewpoint
292156989,-34.0533587,151.0646052,,viewpoint
292157039,-34.0626485,151.0616829,Bungoona Lookout,viewpoint
292430233,-14.9115356,133.0894996,Bitter Springs Thermal Pools,attraction
292430446,-14.9577009,133.2509676,Korowan (Mataranka Falls),viewpoint
292430502,-15.0841215,133.1236314,Elsey Homestead Site,attraction
292436614,-33.476622,151.2511527,,viewpoint
293054926,-37.7551671,144.8815516,,viewpoint
293125004,-33.7213001,150.3185271,Jamieson Lookout,viewpoint
293125306,-33.7219276,150.3221679,,viewpoint
294977485,-38.4290197,144.1554306,Guvvos Beach,viewpoint
295230484,-38.4164678,144.1816488,Anglesey Lookout,viewpoint
295230485,-38.4168001,144.1823655,,viewpoint
296305217,-37.6676376,144.3197893,Falcons Lookout,viewpoint
296360922,-33.5528067,151.2889321,Warrah Lookout,viewpoint
296854477,-20.5828349,139.5750919,Lake Moondarra,viewpoint
297135755,-38.9055137,146.3093908,Millers Landing,viewpoint
298044302,-16.482865,145.4678871,Flagstaff Hill,viewpoint
298331607,-35.3548787,149.2306067,Queanbeyan and District Historical Museum,museum
298331609,-35.3550862,149.2301881,Queanbeyan Printing Museum,museum
298581820,-30.7429932,151.9847215,,viewpoint
298669468,-30.790735,152.034931,,viewpoint
298692763,-30.7355503,152.0336292,,viewpoint
298939730,-33.8107096,150.0371027,Mt Inspiration Lookout,viewpoint
298991442,-35.0821924,149.2615079,Old Saint Lukes Pottery Studio,attraction
299444005,-27.2012528,151.2400969,,viewpoint
300509470,-37.6646207,144.7719804,Organ Pipes,viewpoint
300509500,-37.6651312,144.7654513,Tesselated Pavement,viewpoint
300509514,-37.6643033,144.7671259,Rosette Rock,viewpoint
300692097,-33.6098216,149.1801602,Blayney Windfarm Lookout,viewpoint
300707390,-33.8118225,148.7051807,Cowra Prisoner of War Camp 12,attraction
300756718,-25.3053088,131.9392232,Mount Conner Lookout,viewpoint
300759105,-23.6947188,133.8821799,Anzac Hill,viewpoint
301152855,-20.5893588,139.574503,,viewpoint
301152962,-20.5894212,139.575021,,viewpoint
301153003,-20.5896483,139.5755111,,viewpoint
302180723,-39.0320862,146.3156391,,viewpoint
302180729,-39.0261931,146.3229047,,viewpoint
302182654,-39.0158062,146.32192,,viewpoint
302548343,-30.034658,150.3170978,Glacial Area,viewpoint
303470310,-35.0470885,138.8342359,Historic Windmill,attraction
303696778,-32.4688865,116.8819019,Boyagin Rock,viewpoint
303928605,-33.7749053,151.1346012,,viewpoint
303928640,-33.7759692,151.1371038,Blue Hole,viewpoint
303945429,-33.7858576,151.1453409,,viewpoint
303945458,-33.7827219,151.140485,,viewpoint
304505485,-33.8122087,151.2465843,,viewpoint
304878917,-35.3283737,149.1167177,,viewpoint
304956843,-28.0621649,117.8489482,,attraction
304967936,-28.3342338,116.6746642,,viewpoint
305102054,-33.8316667,138.6130008,Billy Goat Hill Lookout,viewpoint
305109525,-27.4809339,153.0330427,Scout Place,viewpoint
305553548,-34.9061931,138.7079675,First Falls,viewpoint
305567880,-33.8379944,138.6056917,Old Police Station Musuem National Trust,museum
306399502,-25.2861997,130.7361324,Karu Lookout,viewpoint
307592833,-34.9035521,138.7057686,Giant's Cave,attraction
308690926,-30.3570087,153.0595182,Coffs Harbour Butterfly House,attraction
308714891,-20.624349,117.1957195,,viewpoint
308872217,-20.6706747,116.7092761,,viewpoint
308874729,-20.7408987,116.8451088,Water Tanks Lookout,viewpoint
308875511,-20.8540875,116.6124831,Miaree Pool,attraction
308875892,-35.4906957,149.0733027,Lanyon Homestead,attraction
309054463,-21.3244643,117.2161783,,viewpoint
309054464,-21.3179519,117.2371145,Panorama Lookout,viewpoint
309054465,-21.3205525,117.2322066,,viewpoint
309094390,-21.582639,117.093686,Cliff Lookout,viewpoint
309094755,-21.5627973,117.0582543,Snappy Gum Lookout,viewpoint
309590982,-38.5175238,145.1271434,Seagull Rock Lookout,viewpoint
309591082,-38.5150686,145.1442718,Southcoast Lookout,viewpoint
309591084,-38.5129715,145.1494765,Scotchmans Summerland Beach Lookout,viewpoint
310182120,-37.7378208,145.1464349,,viewpoint
310213484,-20.72232,116.75853,Six Mile Railway Museum,museum
310476252,-31.8719356,152.6910877,Pilot Hill Lookout,viewpoint
310543512,-26.9315311,152.8950549,Glass House Mountain Lookout,viewpoint
310733047,-33.8100454,151.2679519,,viewpoint
310974952,-31.9426112,115.772028,Ocean View Lookout,viewpoint
311276467,-30.4333429,152.25094,Cathedral Rock,viewpoint
311276695,-30.3913292,152.2683993,,viewpoint
311708500,-27.50428,153.02065,,viewpoint
311965807,-23.8185318,132.3135715,,viewpoint
311971246,-23.6714058,132.3653088,Tylers Pass,viewpoint
311977042,-23.5782487,132.5198779,,viewpoint
311977448,-23.5662281,132.5196216,Redbank Gorge,attraction
312199033,-34.9739982,138.7088305,Mount Lofty Summit Lookout,viewpoint
312248793,-34.9127873,138.5940116,Light's Vision,viewpoint
312991604,-39.0240394,146.4667031,,viewpoint
312991607,-39.0243652,146.4673169,,viewpoint
312991676,-39.0635328,146.4400614,,viewpoint
313102412,-39.0522661,146.3180411,Norman Point,viewpoint
313130069,-42.221115,146.0907865,Surprise Valley,viewpoint
313131869,-20.1297452,139.7204009,Lake Julius Lookout,viewpoint; information
313140399,-35.2924105,149.0646693,Dairy Farmers Hill,viewpoint
313419541,-31.9516625,115.7770685,,viewpoint
313441294,-31.9560611,115.7749742,,viewpoint
313441312,-31.9546775,115.7726654,,viewpoint
313580521,-17.4879882,128.3833688,,viewpoint
313692883,-33.8422406,151.1972197,Will Ashton Lookout,viewpoint
313692886,-33.8417517,151.1976888,,viewpoint
313692902,-33.8420324,151.1975206,,viewpoint
315043785,-27.4546773,153.0530665,,viewpoint
315151388,-27.5381832,153.043003,Sandstone Lookout,viewpoint
315636599,-17.6524966,145.9565088,Paronella Park,attraction
315854532,-31.5830616,138.544727,Bridle Gap,viewpoint
315864869,-31.4436288,138.5675052,Bunyeroo Lookout,viewpoint
315986905,-23.6354727,132.7459149,,viewpoint
315989634,-23.62919,132.7268401,Ghost Gum Lookout,viewpoint
316160725,-38.6426364,146.3720479,Agnes Falls,attraction
316581606,-23.8047719,133.1752842,Point Howard Lookout,viewpoint
316587259,-29.4502838,152.3680263,Heffrons Lookout,viewpoint
316588276,-31.4467848,148.9111072,G K Rohr Warrumbungle Viewing Platform,viewpoint
316592972,-33.6517549,115.7046063,Ironstone Gully Falls,attraction
316601953,-34.1873312,140.0119111,Holder Bend Lookout,viewpoint
316602064,-34.6326262,139.6658526,Big Bend Lookout,viewpoint
316602185,-35.4811667,138.2750333,Hobart Memorial Lookout,viewpoint
316614139,-19.7454376,147.4957056,Inkerman Hill,viewpoint
316736419,-27.50619,153.00529,,viewpoint
316919034,-35.1009519,149.3752074,Weereewaa Lookout,viewpoint
317069140,-36.9891434,144.3087969,Langs Lookout,viewpoint
317170986,-33.7030548,149.8390896,Falls Hill Rotary Lookout,viewpoint
317393816,-27.5400809,153.0427537,Western Outlook,viewpoint
317882228,-27.5075077,153.0827562,Sankey's Lookout,viewpoint
318319776,-24.3259577,116.8430706,Mount Augustus Summit,viewpoint
318321299,-24.3663262,116.8616971,Mundee,attraction
318321424,-24.3643834,116.8704705,Ooramboo,attraction
318483249,-32.7693712,152.0710291,Mini Golf,attraction
318538346,-37.1488628,144.1635437,The Big Tree,attraction
318549056,-33.7582492,150.6370653,Elizabeth Lookout,viewpoint
318612510,-32.2276607,116.4225142,Chrismas tree well,attraction
319862743,-27.6202964,153.177315,,viewpoint
320385102,-33.8182917,138.5974237,Jim Barry Wines,attraction
320411394,-27.4793117,153.0026837,Gas Stripping Tower,attraction
320820114,-41.4362127,147.1357922,Civic Square Fountain,attraction
320846577,-34.5495123,148.3497568,Bill the Bastard,attraction
321187736,-33.8468186,138.4897125,Medika Gallery,attraction
321188080,-33.8465049,138.4896696,Blyth Cinema,attraction
321201737,-27.4405181,152.8118591,,viewpoint
321392837,-42.3064883,148.2923396,Bear Hil,viewpoint
321396911,-42.1549395,148.2935732,Wineglass Bay Lookout,viewpoint
321413354,-42.1526723,148.289948,Coles Bay Lookout,viewpoint
321561356,-33.4715918,151.4364167,Avoca Theatre,attraction
321926380,-36.4099613,148.2905236,,viewpoint
321926492,-36.4075485,148.306444,Blue Lake lookout,viewpoint
322003512,-41.9501415,147.882999,Meetus Falls,attraction
322468810,-36.7078269,144.318501,Bendigo Pottery,attraction
322499316,-41.4299542,146.5600993,Ashgrove Cheese Factory,attraction
322764700,-38.3191748,142.3750216,Cairn Lookout,viewpoint
322874801,-23.698708,133.8820572,The Residency,attraction
323068360,-36.9869337,144.0731834,Union Hill MIne Lookout,viewpoint
323171275,-32.5592236,115.7358288,Bird Hide,viewpoint
323252627,-38.1840589,142.4313775,,attraction
323252977,-38.1903112,142.4308419,,attraction
323412258,-30.9835752,151.9709969,Budds Mare Lookout,viewpoint
323454175,-30.683377,151.758304,Sarum Hill Lookout,viewpoint
323455626,-30.693183,151.73393,Mihi Falls Lookout,viewpoint
323456924,-30.676386,151.730962,Rock Wallaby Lookout,viewpoint
324186690,-31.0494583,151.7709566,Oxley Lookout,viewpoint
324186808,-31.0529359,151.7704899,Lower Falls Lookout,viewpoint
324186826,-31.0523997,151.7696427,Slate Walls Lookout,viewpoint
324187073,-31.0571773,151.7671181,,viewpoint
324207765,-37.9077439,145.1902768,Museum of Australian Photography,museum
324759855,-42.9241863,147.3442507,Mount Nelson Signal Station,viewpoint
324828116,-12.5634839,131.3034379,,viewpoint
324830143,-37.0806561,147.4549814,,viewpoint
324830705,-37.0773008,147.4571958,,attraction
324830728,-12.6604011,131.3365819,Adelaide River Queen Cruises (Jumping Crocodiles),attraction
324831204,-37.0849699,147.4597879,Victoria Falls,attraction
324834945,-42.0441195,147.8900245,Lost Falls,attraction
324904132,-36.7700784,146.756573,South Buffalo View Point,viewpoint
324913735,-36.7219713,146.8231505,,viewpoint
324919770,-13.2054156,130.7139605,Tolmer Falls Lookout,viewpoint
324939393,-37.1270998,147.5343594,Kosciusko Lookout,viewpoint
324946365,-38.2703064,144.6377934,Marine Discovery Centre,attraction
324987408,-12.4609874,130.8335868,,viewpoint
325652246,-30.5741024,151.885353,Metz Gorge,viewpoint
326582002,-28.348585,152.9645666,Border Loop Lookout,viewpoint
327775782,-23.8166364,132.316393,,viewpoint
330171767,-17.6424401,145.4577353,,viewpoint
330171829,-17.7774717,145.5574672,Tully Falls Lookout,viewpoint
330339158,-14.9025343,126.1948381,Bradshaws Rock Art,attraction
330346303,-16.5358415,126.126393,Barnett River Gorge,attraction
330382739,-37.2835373,142.9344785,Langi Morgala Museum,museum
330382743,-37.2825726,142.9372359,Railway Museum,museum
331114563,-34.993939,149.3825603,Lerida Estate Winery,attraction
331134270,-30.4911723,152.4068406,Platypus Valley Lookout,viewpoint
331134299,-30.4905465,152.4073785,Platypus Valley Lookout,viewpoint
331134488,-30.489348,152.410642,Eagles Nest Lookout,viewpoint
331144441,-42.0439926,147.8905628,Lost Falls Lookout,viewpoint
331152972,-41.158708,146.3568461,,viewpoint
331152989,-41.1590613,146.3569173,,viewpoint
331262906,-17.6076543,125.1456929,Tunnel Creek,attraction
331333591,-17.4804972,128.3733238,Cathedral Gorge,attraction
331335793,-17.5257718,128.3657536,Elephant Rock,attraction
331344617,-30.5025903,152.3994971,,viewpoint
331365668,-42.6096115,147.88216,Three Thumbs Lookout,viewpoint
331366598,-42.758005,147.8301577,,viewpoint
331385587,-36.4313727,148.3286811,Charlotte Pass Lookout,viewpoint
331548168,-17.3283216,128.4153578,Echidna Chasm,attraction
331548562,-17.3415862,128.3929639,Mini Palms Gorge,attraction
331647137,-36.3765718,148.5769963,Gaden Trout Hatchery,attraction
331996157,-23.1774701,150.9443616,1st Lookout,viewpoint
331996174,-23.1891709,150.9398641,Morris' Lookout,viewpoint
332192771,-37.2792693,142.9253757,Gum San Chinese Heritage Museum,museum
332197630,-37.2830939,142.9321971,Ararat Gallery TAMA,gallery
332206552,-26.9258287,152.9422709,Ngungun View,viewpoint
332206554,-26.9263138,152.9420562,Mountain View Lookout,viewpoint
332206566,-26.9271607,152.9420094,Tunbubudla View,viewpoint
332208416,-26.9380383,152.9366569,Jack Ferris Lookout,viewpoint
332374534,-39.0248669,146.3183378,,viewpoint
332391983,-33.7540995,151.2641335,Governor Phillip Lookout,viewpoint
332552782,-30.9670118,152.0100146,Aboriginal bark-stripped tree,attraction
332552783,-30.9584342,152.0330083,,viewpoint
333017434,-36.0572465,146.4272473,Stanton & Killeen Wines,attraction
333018219,-36.0682923,146.4084686,Buller Wines,attraction
334107323,-33.7617681,150.8592257,The Nurragingy Blacksmith,attraction
334511136,-27.4621837,153.0177951,The Lookout,viewpoint
334512668,-35.5225517,138.7752628,,viewpoint
335880691,-33.395222,149.7190985,Winburndale Winery,attraction
335884680,-33.3937744,149.669806,Bathurst Sheep and Cattle Drome,attraction
338564207,-30.9716033,152.011823,Aboriginal Coolamon tree,attraction
338564433,-30.9902077,152.0162265,Old cattle yards,attraction
339277974,-33.7068233,150.5659815,Lawsons Lookout,viewpoint
339287438,-30.5075625,152.4057945,Wrights Lookout,viewpoint
341428465,-30.3766419,153.1037575,Sawtell Headland,viewpoint
341924028,-32.8460498,115.9833622,Waroona Dam,attraction
343298703,-27.3054373,152.8861929,Clear Mountain,viewpoint
344568805,-32.9369192,115.9707283,Big Tree Ferns,viewpoint
345132110,-41.6987919,146.7624059,,viewpoint
345501999,-27.1275178,152.6780111,Diana's Bath,attraction
345535986,-27.2050634,152.7035467,Kluvers Lookout,viewpoint
346076739,-27.4731529,152.9472998,Ghost Hole,attraction
346486390,-30.322789,152.7155015,,viewpoint
349009068,-38.173699,144.3003771,Brownhill Heights,viewpoint
353448831,-32.6739348,152.1851851,Bennets Beach,viewpoint
354448339,-26.4762413,152.9522896,Eumundi Markets,attraction
356083227,-34.0754394,151.168635,,viewpoint
357060751,-38.6642772,143.1038033,The Twelve Apostles,viewpoint
357074707,-38.4720398,144.0445751,Memorial Arch,attraction
357080092,-38.3531424,144.9510593,Arthurs Seat Lookout,viewpoint
357080126,-38.3294732,144.6934073,London Bridge Lookout,viewpoint
358671249,-10.4283875,105.6631047,Smith Point,viewpoint
359414202,-34.8331818,139.1272026,,viewpoint
359540059,-31.5205383,159.0542585,Sylphs Hole,viewpoint
360579112,-42.1229113,148.3426731,Cape Tourville Lookout,viewpoint
360579140,-42.1223131,148.3431847,,viewpoint
360583630,-42.7833567,146.0323027,White Spur Lookout,viewpoint
360583736,-42.7314177,145.9765644,,viewpoint
360634495,-43.1523549,146.7778476,Big Tree,attraction
361402876,-38.5052194,145.2307398,Phillip Island Raceway Visitors Centre,attraction
362042374,-33.8475588,151.1934152,,viewpoint
362042848,-33.8473673,151.1948104,,viewpoint
362215399,-27.26848,152.97159,Gordon Jackson Lookout,viewpoint
362296632,-41.6560438,145.948427,,viewpoint
364253720,-43.0089189,147.9325535,Tessallated Pavement,attraction
364348754,-42.6909151,146.6954242,Lady Barron Falls,viewpoint
364859663,-27.49697,153.0253775,,viewpoint
364879876,-33.8432832,151.197074,Berrys Bay Lookout,viewpoint
364912212,-27.4111619,152.8798727,,viewpoint
364912280,-27.4102217,152.878956,Camp Mountain Lookout,viewpoint
364972029,-31.0380783,152.1164762,The Rocks,viewpoint
364973709,-33.0861628,149.3923954,,viewpoint
364991374,-33.0476125,149.4208708,,viewpoint
365002316,-33.0468534,149.4131149,Kissing Point,viewpoint
365202930,-33.0369283,149.4061897,Bald Hill Mine,attraction
365264431,-33.0360884,149.4026888,Bald Hill,viewpoint
365491081,-28.624194,153.485978,Scarabalotti's Lookout,viewpoint
366808385,-37.8808736,147.9641137,,viewpoint
369175389,-28.409261,153.0241023,Cedargetters Signature,attraction
370538351,-34.0502827,115.0249175,Calgardup Cave,attraction
370729778,-37.7405754,145.1240191,Rapids Observation Point,viewpoint
371302995,-32.7212776,152.1154727,,viewpoint
371828223,-34.4384133,150.4509372,Katoomba Lookout,viewpoint
373828885,-34.5967015,150.8992904,,viewpoint
373858763,-10.7429545,142.5163064,Roma Flats Scrub Walk,attraction
377995309,-41.1754317,147.7350052,Chinese mining settler's hut,attraction
378712134,-30.6978499,151.4683197,Thunderbolt's Rock,attraction
380462726,-27.4750358,153.0342235,,viewpoint
380483473,-42.298862,147.3764562,Callington Mill,attraction
387135812,-30.1109279,153.2110215,,viewpoint
387151004,-30.1113328,153.2092208,,viewpoint
387276686,-36.0630528,136.7048311,,viewpoint
387276689,-36.0635761,136.7048136,,viewpoint
387945126,-30.3635954,152.7298145,Skywalk,viewpoint
387997433,-30.4029721,152.726546,Griffiths Lookout,viewpoint
389492710,-42.9052124,147.2475883,Sphinx Rock,viewpoint
390226287,-33.3207619,115.6496697,Dolphin Discovery Centre,attraction
391694671,-31.5679461,159.0753601,,viewpoint
391694672,-31.5828991,159.0811677,Get Up Place,viewpoint
391694913,-31.5629682,159.0897746,The Goathouse,viewpoint
391694994,-31.5446942,159.0838474,,viewpoint
391696307,-31.5465163,159.0916937,Mutton Bird Point Viewing Platform,viewpoint
391842268,-31.5395463,159.0664218,Comets Hole,viewpoint
391842288,-31.5344256,159.0781394,Viewing Platform,viewpoint
391842330,-31.5345646,159.0781977,1982 Time Capsule,attraction
391844863,-31.5269761,159.0793154,Valley of the Shadows,viewpoint
391844939,-31.5283024,159.0799282,The Clear Place,viewpoint
391844979,-31.5280116,159.0755747,Views,viewpoint
391878208,-31.5280148,159.066555,Lord Howe Island Museum,museum
391882052,-31.526622,159.0752781,Rock pools and coral (low tide only),viewpoint
391923104,-31.5186904,159.070484,Views,viewpoint
391923211,-31.5130729,159.0536481,,viewpoint
391923226,-31.5167724,159.0615132,Pooles Lookout,viewpoint
391923301,-31.5216112,159.045901,Favourite,viewpoint
391923314,-31.5127847,159.0606255,Views,viewpoint
391923549,-31.5126242,159.0612971,Views,viewpoint
391923594,-31.5122241,159.0431881,The Herring Pools,viewpoint
391923595,-31.5127242,159.0608899,Malabar Lookout,viewpoint
391923603,-31.5134206,159.0515507,Kims Lookout,viewpoint
391923635,-31.5131169,159.0399473,Views,viewpoint
391923638,-31.5133245,159.0570801,Views,viewpoint
392181666,-26.9308324,152.9985731,Wild Horse Mountain,viewpoint
392516465,-37.3693813,148.2189989,W Tree Falls Lookout,viewpoint
392660449,-31.6562102,151.8089387,Carson Pioneer Lookout,viewpoint
393667711,-27.4771461,152.9842663,,museum
393758731,-23.3153642,150.7593242,Koorona Crocodile Farm,attraction
395265643,-23.8338995,151.2538606,Auckland Point Lookout,viewpoint
395265905,-23.9471447,151.3746732,,viewpoint
397903800,-33.6797721,150.2428087,Panorama Point,viewpoint
397903831,-33.6769077,150.2428128,Hargraves Lookout,viewpoint
397907502,-33.6417299,150.2453149,Mount Blackheath Lookout,viewpoint
397909430,-33.6436368,150.2447788,,viewpoint
398825645,-33.5517478,150.2188156,,viewpoint
398826706,-33.5524563,150.219238,,viewpoint
398839590,-33.5528636,150.2221716,,viewpoint
398873040,-33.583201,150.2387284,Mitchells Ridge Lookout,viewpoint
398873775,-33.582679,150.2383936,Mitchells Ridge Lookout,viewpoint
398873986,-33.5833512,150.2390116,Mitchells Ridge Lookout,viewpoint
400457931,-20.3460844,144.4606465,Porcupine Gorge Day Visitors,attraction
400580052,-33.8877383,150.3836703,Alternative Lookout,viewpoint
400581921,-33.890517,150.3829579,McMahon's Lookout,viewpoint
400697241,-31.1909654,152.9822376,,viewpoint
400697365,-31.1864057,152.9840916,,viewpoint
400706739,-30.5950631,153.0138149,,viewpoint
400897285,-33.5978847,150.2498789,Pulpit Rock,viewpoint
400980202,-33.7036336,150.290767,Former site of Explorers Tree,attraction
400988444,-33.7207769,150.2840448,Cahills Lookout,viewpoint
403546625,-33.2249613,115.8880248,Lookout,viewpoint
403752947,-27.3770089,152.9988316,Spider Hill,viewpoint
403811392,-33.6794803,150.3274732,,viewpoint
405088579,-31.6473962,152.8384343,Dunbogan Lookout,viewpoint
405166509,-37.6202847,142.3359435,,viewpoint
405170959,-37.1725136,142.5195483,Lakeview Lookout,viewpoint
405171464,-37.1707975,142.5175526,,viewpoint
408160050,-33.3762541,115.9046872,The Rock,viewpoint
408409519,-28.3247224,153.3988406,Lion's Lookout,viewpoint
408986413,-30.9213282,153.0855303,Captain Cook Lookout,viewpoint
410043857,-30.6456764,153.0122426,Rotary Lookout,viewpoint
410043858,-30.6460408,153.0160834,Captain Cook Lookout,viewpoint
410043860,-30.6456841,153.0166492,Captain Cook Lookout,viewpoint
410054390,-33.6470773,150.3265165,Evans Lookout (Lower),viewpoint
410054393,-33.6589526,150.317735,Grand Canyon,attraction
410055825,-33.7374602,150.3385631,Sublime Point,viewpoint
410097932,-28.6368478,153.6287409,The Pass,viewpoint
410494607,-30.3938215,152.7456145,Newell Falls,attraction
410512450,-30.3718989,152.7259563,,viewpoint
410521636,-26.9620149,151.2344192,Jimbour Station,attraction
410783543,-33.6767635,150.242417,,viewpoint
410799019,-33.5439005,150.2336702,,viewpoint
410802044,-33.7262664,150.329948,Elysian Rock,viewpoint
410802058,-33.7235447,150.3229036,Bridal Veil View,viewpoint
410802064,-33.7241269,150.3251793,Tarpeian Rock,viewpoint
410802066,-33.7240052,150.3250602,,viewpoint
410802068,-33.7258519,150.3281898,Olympian Rock,viewpoint
410802072,-33.7262431,150.3296069,,viewpoint
410802081,-33.7265923,150.3325015,Gordon Falls Lookout,viewpoint
410802085,-33.7272992,150.3356419,Golf Links Lookout,viewpoint
410859256,-33.4028437,116.0371913,The Boulders,viewpoint
410886826,-27.235001,152.3999662,Lookout,viewpoint
410909328,-30.4029719,152.3369848,Lower Falls Lookout,viewpoint
410909335,-30.4037735,152.3398954,,viewpoint
411232049,-33.721732,150.3193424,Echo Tree Lookout,viewpoint
411232050,-33.7216113,150.3191747,Flat Top Lookout,viewpoint
411232063,-33.7222383,150.3200774,Fossil Rock,viewpoint
411232073,-33.7236214,150.3206261,Copelands Lookout,viewpoint
411232081,-33.7217702,150.3220196,Majestic Lookout,viewpoint
411232095,-33.7219998,150.3223985,Leura Cascades,viewpoint
411232096,-33.7220956,150.3217907,,viewpoint
411242682,-33.5113558,150.1480502,,viewpoint
411659095,-31.657074,152.7746138,Diamond Head Lookout,viewpoint
411659113,-31.6580164,152.7778238,Don Johnstone Lookout,viewpoint
411659114,-31.6573224,152.7780384,Laurieton Lookout,viewpoint
411659125,-31.6569936,152.7776436,,viewpoint
411665319,-31.647842,152.8401122,Charles Hamey Lookout,viewpoint
411665320,-31.6465609,152.8411418,,viewpoint
411665422,-31.6412143,152.84892,,viewpoint
411665427,-31.6413191,152.8493187,,viewpoint
411665439,-31.6418284,152.8457599,,viewpoint
411665440,-31.6426614,152.843348,,viewpoint
411665452,-31.644079,152.8441634,Fishermans Bluff,viewpoint
411665468,-31.6443074,152.8419328,Pebbly Beach Lookout,viewpoint
411673555,-30.6764278,151.7270425,Falls View,viewpoint
411673572,-30.6747521,151.7255233,,viewpoint
411673573,-30.6754386,151.725901,,viewpoint
411673574,-30.6761399,151.7262615,,viewpoint
411673575,-30.6739966,151.7260191,Falls Lookout,viewpoint
411673959,-30.6766017,151.7277987,Falls Lookdown,viewpoint
412725945,-27.2308908,151.3747245,Kommamurra Grain Silos,attraction
413309277,-26.7903097,153.1449549,Ma and Pa Bendall Park,viewpoint
413757827,-37.5673803,145.5253851,,viewpoint
413884595,-34.6483974,150.4797656,Jersey Lookout,viewpoint
413884630,-34.6489603,150.4779939,Richardson Lookout,viewpoint
413884675,-34.648681,150.4767703,Twin Falls Lookout,viewpoint
413884677,-34.6485072,150.4753769,Paines Lookout,viewpoint
414549527,-33.5208693,149.2514482,Church Hill Rotary Lookout,viewpoint
414685409,-30.4559336,151.3769509,Bulagaranda (Mt Yarrowyck) Aboriginal Paintings,attraction
415288477,-30.3303695,151.6751272,Thunderbolt's Cave,attraction
415303774,-33.6259396,150.6084283,Grose Head South Lookout,viewpoint
415308230,-30.6950409,151.5849708,Gostwyck Chapel,attraction
415308232,-30.6279284,151.4732106,Uralla Fossicking Area,attraction
415309805,-30.542573,151.8939711,Bakers Creek Falls Lookout,viewpoint
415516937,-27.4723588,153.0574348,,viewpoint
416374090,-26.3047992,152.836182,James McKane (Tablelands) Lookout,viewpoint
416855148,-38.2229711,146.1617473,Mount Speed Lookout,attraction
417265654,-34.6499419,150.48258,May Lookout,viewpoint
417266229,-34.6483341,150.4826322,,viewpoint
417289761,-32.7165186,151.2571404,Mistletoe Winery,attraction
418715311,-33.293508,116.1714816,Water Tank,viewpoint
418730138,-34.341386,146.0735238,Catania Fruit Salad,attraction
418751925,-31.5181662,138.6386742,Cazneaux Tree,viewpoint
418752066,-31.5425278,138.5866445,Wangarra Lookout,viewpoint
418752095,-31.5458173,138.5875238,Lower Lookout,viewpoint
419062494,-31.6091255,138.634778,,viewpoint
419111145,-31.9048821,138.3645866,Jarvis Hill Lookout,viewpoint
419546238,-34.1111892,141.9086198,,viewpoint
420045644,-37.950768,145.2390134,Nerranjeri Wurundjeri Historic Area Lookout,viewpoint
420847961,-30.9094161,134.0809304,,viewpoint
421202614,-33.9621742,137.7147535,War Memorial,museum
421430692,-37.6885383,145.2247153,Kangaroo Ground Memorial Tower,viewpoint
421546189,-37.1495147,142.4588006,The Balconies Lookout,viewpoint
421546205,-37.1481605,142.4481924,,viewpoint
421546233,-37.1476127,142.4467662,,viewpoint
422502555,-23.1839075,150.9491449,2nd Lookout,viewpoint
422589082,-34.5010385,150.4579431,Wombats View,viewpoint
423168283,-31.2734434,149.2772232,Clock Tower,attraction
423791775,-37.1105542,142.4125462,Broken Falls Lookout,viewpoint
423791833,-37.1110191,142.4070147,MacKenzie Falls Lookout,viewpoint
423823530,-36.4994497,142.0155733,Wimmera River,viewpoint
426219519,-33.8458051,151.2020114,,viewpoint
427867402,-36.309461,146.207288,Ryans Lookout,viewpoint
427939135,-37.4854508,140.0052789,Durant's Lookout,viewpoint
427963588,-37.561354,140.4107567,Millicent Lookout,viewpoint
429065122,-38.3130465,144.6943756,Norris Barracks,attraction
429407331,-38.3300204,144.6969117,,viewpoint
429417260,-32.9077621,151.6865534,,viewpoint
429417287,-32.9068794,151.6873312,,viewpoint
429417299,-32.9077711,151.6883182,,viewpoint
429422014,-29.4623971,147.9671911,Lunatic Hill Open Cut,viewpoint
429422034,-29.4627088,147.9687623,Lunatic Hill Open Cut,viewpoint
429422369,-29.4298595,147.9236762,First Shaft Lookout,viewpoint
429547962,-26.7664461,124.3664183,Empress Spring,attraction
429665145,-34.1760622,148.3798884,Touts Lookout,viewpoint
429677646,-34.4622566,150.4275185,Jellore Lookout,viewpoint
429677650,-34.470746,150.4290631,Bowral Lookout,viewpoint
429713192,-29.4888894,142.2501772,Mount Wood Outdoor Pastoral Museum,attraction
429736473,-23.6513471,150.389123,Rotary Lookout,viewpoint
429736475,-23.6479034,150.3824181,,viewpoint
429745822,-23.1650734,150.4904529,Capricorn Caves,attraction
429759577,-27.5912731,141.1396187,Old Conrick's Crossing,attraction
430028031,-23.2562039,150.8291309,Singing Ship,viewpoint
430046527,-28.1326508,140.211252,Moomba viewing bay,attraction
430046533,-29.3997241,139.9878813,Monte Collina bore,attraction
430096353,-29.4008156,136.814772,Coward Springs Station,attraction
430096359,-29.486381,137.179912,Lake Eyre South Lookout,viewpoint
430096371,-29.4465569,136.857963,The Bubbler - Mound Spring,attraction
430096372,-29.4532362,136.8579176,Blanche Cup - Mound Spring,attraction
430604789,-27.4769871,152.9731298,,viewpoint
430702080,-31.2335071,136.4052174,Lake Hart Rest Area and Lookout,viewpoint
430702098,-31.2646192,136.5990284,Island Lagoon Lookout,viewpoint
431104667,-31.9731577,116.0606819,Bibbulmun Track Northern Terminus,attraction
431412163,-31.6143464,138.6034865,Wilpena Pound Lookout,viewpoint
431467259,-33.7020496,140.1242784,Froggy Hide,viewpoint
431467386,-33.7056707,140.2128555,Josie's Hideaway,viewpoint
431467894,-33.7527605,139.9969073,Old Gluepot Hide,viewpoint
431468082,-33.7649787,140.0453642,The Don & Chrisl Lill Bird Hide,viewpoint
431468135,-33.7815457,140.1401621,John Martin Hide,viewpoint
431475334,-31.3494789,151.1382782,Chaffey Dam Lookout,viewpoint
431492780,-31.0989618,150.9366802,Australian Country Music Hall of Fame,attraction
431495823,-29.2431312,145.1384321,Numulla Lake,attraction
432430184,-32.9643867,151.66207,,viewpoint
432482311,-31.277069,138.5780312,Aroona Spring,attraction
432482333,-31.4045727,138.5865928,Bunyeroo Valley Lookout,viewpoint
432824726,-31.1145705,138.5261647,,viewpoint
432824727,-31.1856298,138.6836452,Great Wall of China viewpoint,viewpoint
432824730,-31.6004755,138.8687676,Site of old woolwash,attraction
434262426,-26.8354388,151.5515599,Burton's Well,attraction
434281035,-26.888611,151.6004191,Mount Mowbullan,viewpoint
434285119,-35.3002352,149.138486,,viewpoint
434369944,-23.3756475,150.5070455,Archer Park Rail Museum,museum
434858614,-33.8923388,151.0409844,Big Bike,attraction
436208142,-37.5803817,143.8605954,Ballaarat Observatory,museum
436208157,-37.5787488,143.8654906,Sovereign Hill Lookout,viewpoint
437609800,-42.9231916,147.185236,Wellington Falls Lookout,viewpoint
439951023,-37.8747956,145.1270482,Monash Historic Society,museum
439996156,-30.3350627,139.3814289,Ochre Wall,attraction
440018068,-30.2725883,139.2877437,Nooldoo Nooldoona Waterhole,attraction
440018080,-30.2429661,139.2276033,Quondong Tree,attraction
440018081,-30.2554562,139.2244285,The Needles (no access),attraction
440044661,-30.273372,139.341196,Coulthards Lookout,viewpoint
440082801,-30.5586787,139.1668261,Palm Trees,attraction
440111199,-33.4263463,149.551467,,viewpoint
440111207,-33.4340609,149.5495616,,viewpoint
440472119,-25.9140755,153.0977387,Carlo Dune Viewing Platform,viewpoint
440720106,-33.4561992,149.5509731,McPhillamy Park Lookout,viewpoint
441511815,-27.1762326,151.2449198,Pioneer Park Museum,museum
441513619,-41.1624806,146.3294885,Don Heads Historic Site,attraction
441523040,-37.6861965,145.4743071,Rochford Winery,attraction
442296490,-12.445818,130.6717039,Magnetic Termite Mounds,viewpoint
442517282,-28.260225,152.6484729,Montserrat Lookout,viewpoint
442569654,-28.2359784,152.5146523,,viewpoint
443213702,-29.0842539,151.9680631,Mount Mackenzie Lookout,viewpoint
443314884,-33.79855,151.1528447,,viewpoint
443314885,-33.7984844,151.1524199,,viewpoint
443314887,-33.798917,151.1497331,,viewpoint
443321893,-38.2668536,145.9823158,,viewpoint
443321962,-38.2620019,145.9989518,,viewpoint
443617321,-33.7964042,151.2217616,,viewpoint
443617328,-33.7966823,151.2199036,,viewpoint
443617329,-33.7936558,151.2220042,,viewpoint
443617377,-33.7949188,151.2209525,,viewpoint
443635401,-28.2513738,152.7079816,Five Peaks View,viewpoint
443642933,-26.3198459,152.8915706,Twin Hill Views,viewpoint
444252032,-30.5214104,153.0279795,Hungry Head Headland,viewpoint
444332439,-30.5746,151.918762,,viewpoint
444667707,-35.2322993,148.9939766,Strathnairn Gallery,attraction
444668307,-25.4469889,153.1276318,Nulwarr Hill,viewpoint
444668653,-25.5347516,153.0996282,Markwells Lookout,viewpoint
445359324,-33.8365677,151.2589346,,viewpoint
445411570,-32.9364121,151.689713,,viewpoint
445537303,-38.6479627,143.0656431,Mutton Bird Island Lookout,viewpoint
445537312,-38.6686286,143.1121047,Gibson Steps,viewpoint
445537459,-38.6483098,143.0688505,Loch Ard Wreck lookout,viewpoint
445537514,-38.6493232,143.0722725,The Razorback,viewpoint
446033537,-32.3648848,152.2933418,The Grandis,viewpoint
446169992,-16.5052489,123.5447113,Horizontal Waterfalls,attraction
446266331,-38.6479293,143.0726297,Tom and Eva Lookout,viewpoint
446462047,-28.2387827,152.4450472,1955 Lincoln aircraft wreck,attraction
446874373,-32.8837894,151.7136213,,viewpoint
447570776,-28.250683,153.1798901,Nyamulli Lookout,viewpoint
447573994,-28.1998882,153.2142951,Burrawong Lookout,viewpoint
447573999,-28.1927778,153.2157221,Milleribah Lookout,viewpoint
447574235,-28.1973266,153.1830231,3,attraction
447579892,-28.2386331,153.2196636,Araucaria Lookout,viewpoint
447579916,-28.2052477,153.1972429,Koolanbilba Lookout,viewpoint
447591030,-28.1937432,153.215661,Nyoongai Lookout,viewpoint
447591031,-28.1950888,153.2156905,Goorooburra Lookout,viewpoint
447591037,-28.2101148,153.1916954,Tullawallal Lookout,viewpoint
447591039,-28.2300873,153.1981489,Joalah Lookout,viewpoint
447591626,-28.2494115,153.1924998,Chakoonya Lookout,viewpoint
447591629,-28.2214949,153.215315,Numinbah Lookout,viewpoint
447591630,-28.2535675,153.2137727,Warumblebah Lookout,viewpoint
447591631,-28.2537043,153.2155125,Garragoolba Lookout,viewpoint
447992071,-35.270034,149.0640368,,viewpoint
448097840,-38.1468371,144.3024932,Wombat Hill Lookout,viewpoint
448108633,-30.5337376,152.0331697,Main Falls Lookout,viewpoint
448108638,-30.531213,152.0384987,Gorge Lookout,viewpoint
448108640,-30.5315908,152.0411148,Wollomombi Falls Lookout,viewpoint
448108641,-30.5326853,152.0448471,Chandler Falls Lookout,viewpoint
448108642,-30.5353539,152.0333888,Checks Lookout,viewpoint
448108643,-30.5415061,152.0298625,Chandler Viewpoint,viewpoint
448143051,-38.6658266,143.1046279,The Twelve Apostles,viewpoint
448157482,-32.3772172,116.2528686,Sullivan Rock,viewpoint
448157483,-32.3514537,116.2546796,Mount Cuthbert,viewpoint
448157486,-32.3629191,116.2534853,Mount Vincent,viewpoint
448176735,-28.2003478,153.1860044,13,attraction
448176745,-28.200853,153.1849474,12,attraction
448176757,-28.2016819,153.18431,11,attraction
448176759,-28.200648,153.1842621,8,attraction
448176768,-28.2012081,153.1833148,6,viewpoint
448810461,-37.827188,145.0244299,Melbourne Tram Museum,attraction
449282089,-38.649005,143.611911,,viewpoint
450518484,-33.9297814,137.626416,Wallaroo Heritage and Nautical National Trust Museum,museum
452875654,-36.3235596,148.2002601,Scammells Ridge Lookout,viewpoint
453026034,-36.6922635,148.4509586,Wallace Craigie Lookout,viewpoint
453040654,-35.6224467,148.2946453,,viewpoint
453040717,-35.6242371,148.2930056,,viewpoint
453049550,-35.52265,148.1395218,Weemala Lookout,viewpoint
454166701,-30.801428,152.106187,,viewpoint
454743751,-35.2859418,138.5712418,John Yeats Memorial Lookout,viewpoint
454986254,-24.3315601,133.6334563,Rainbow Valley,viewpoint
455557515,-37.5145407,145.751522,Bruno's Art and Sculpture Garden,gallery
455755951,-28.8093012,153.6056485,Pat Morton Lookout,viewpoint
456550560,-35.2409442,148.9771182,Shepherd's Lookout,viewpoint
456849858,-37.0397475,147.6353267,McMillans Lookout,viewpoint
457391905,-36.9847494,147.1134263,Danny's Lookout,viewpoint
457901683,-27.3452655,153.0953836,,viewpoint
457978753,-31.8709977,152.6872373,,viewpoint
458711237,-25.3949187,153.0849638,Leading Hill,viewpoint
458712741,-33.8439726,151.2391873,Free Flight Bird Show,attraction
458714303,-25.1156421,153.1264332,Arch Cliff,viewpoint
458714462,-25.0806401,153.1634748,Yathon Cliff,viewpoint
458714857,-24.8523758,153.1866984,Teahwan Rocks,viewpoint
458715041,-24.8170345,153.1196509,Rooney Point,attraction
458716264,-25.1468629,153.2947757,The Cathedrals,viewpoint
461114868,-33.8386591,151.2047692,Mary McKillop Museum,museum
463249383,-42.128337,148.2890509,Freycinet Sea Cruises,attraction
465200731,-33.6041427,150.8225468,Doctors House,attraction
465200732,-33.6045186,150.8227619,Hawkesbury Museum – John Howe’s House,museum
465200733,-33.6067912,150.8310395,Peninsula House & Tebbutt's Observatory 1879 & 1894,museum
465200755,-33.6088255,150.8131398,Anglican Rectory (1825),attraction
465200757,-33.6133162,150.811954,Old Station Masters House – 1880,attraction
465227316,-36.3445328,140.9670723,State border,attraction
465624732,-34.681867,117.8690699,Hayward Peak,viewpoint
465624769,-34.6813449,117.8572261,Morgan's View,viewpoint
465629637,-34.3928929,117.8106016,Western Lookout,viewpoint
469535409,-27.4760147,152.9781956,,viewpoint
469535526,-27.474997,152.9776929,Richard Randall Art Studio,gallery
469558516,-29.0479742,167.9824449,,viewpoint
469558594,-29.0106195,167.9243711,,viewpoint
469573217,-41.7777171,145.5332684,Stitt Falls Lookout,viewpoint
469628627,-34.08075,148.3642503,Mount Oriel Homestead (Iandra Castle),attraction
469734407,-41.7326431,146.5086383,Meander Falls,attraction
470977976,-26.6301658,152.8396026,Peregrine Lookout,viewpoint
470977979,-26.630855,152.8411305,Mapleton Falls Lookout,viewpoint
471188177,-26.6031938,152.8292677,,viewpoint
471230338,-26.5898843,152.7957335,,viewpoint
471230360,-26.5959049,152.8144923,,viewpoint
472460335,-26.3860516,153.037528,The Big Shell,attraction
472673798,-34.6562798,150.7042971,Jamberoo Lookout,viewpoint
473363722,-27.9331593,153.1725299,Witches Falls Lookout,viewpoint
473371613,-19.1780156,146.8444748,Hawkings Point Lookout,viewpoint
473371614,-19.1771262,146.8344617,Sails Rock Lookout,viewpoint
473507119,-27.2306055,153.1170658,Redcliffe Lagoon,attraction
474383352,-33.2988344,151.5513083,Pelican Beach,attraction
475489434,-33.7497663,150.2829833,,viewpoint
475489435,-33.7558526,150.2872847,Castle Head,viewpoint
475489487,-33.7504883,150.2833711,,viewpoint
475568575,-37.6407201,145.5494824,Maroondah Dam Lookout,viewpoint
477276204,-35.0010547,148.1105331,Dog on the Tuckerbox,attraction
477310013,-26.3633925,152.8561382,Noosa Shire Museum,museum
478486496,-34.7670398,149.7197092,Goulburn Brewery,attraction
478549654,-28.2327317,153.1374954,Tree Top Walk Ladder,viewpoint
478556046,-28.2440308,153.1528898,Picnic Rock,attraction
480641725,-38.0037067,145.1253312,Birdhide,viewpoint
482102460,-27.4232042,153.1701079,,viewpoint
485525354,-30.887268,151.959086,,viewpoint
485528062,-30.9221101,151.8490944,,viewpoint
486059838,-23.3628043,119.7258763,,viewpoint
488427882,-33.6511828,151.2514504,,viewpoint
489290681,-27.3734336,153.0935999,Bora Ring,viewpoint
489319906,-27.3748987,153.0953806,,viewpoint
491615441,-34.1834183,151.0475614,,viewpoint
492603506,-34.2146485,151.006575,,viewpoint
493792629,-34.1534625,151.0995456,Eagle Rock,attraction
494778493,-37.6545602,144.0380922,Lal Lal Falls,viewpoint
496786550,-33.5826493,151.2138825,Top of the World,viewpoint
496967773,-33.8337046,151.211212,,viewpoint
496996199,-23.2403744,150.8185197,,viewpoint
497736191,-41.1370449,146.6273294,Archers Knob,viewpoint
498485346,-34.0929785,150.7697954,Campbelltown Steam & Machinery Museum,attraction
498740509,-41.1034227,146.8619948,Mt George Signal Tower,viewpoint
501544041,-37.79653,145.010055,Galatea Point Lookout,viewpoint
501567223,-41.8775739,148.3058927,Lookout Rock,viewpoint
501660965,-43.0484627,147.9497999,,viewpoint
501699170,-43.0318327,147.9183751,,viewpoint
501770488,-33.5475927,151.1798887,Western Lookout,viewpoint
501770556,-33.5539429,151.1885653,Tipper Lookout,viewpoint
501770636,-33.5467005,151.1909828,Lloyd Trig,viewpoint
501794986,-27.261737,153.1073329,HMQS Gayundah Viewing Area,viewpoint
503875263,-30.7883643,152.1482266,Probable site of old hut,attraction
504914787,-15.468966,145.2506461,James Cook Museum,museum
506112481,-42.963602,147.2518176,,viewpoint
506146166,-42.7168488,146.4661592,Tim Shea lookout,viewpoint
507961677,-24.464721,150.914162,Beautiful Betsy,attraction
508171789,-37.0459016,146.621891,Dangdongadale Falls,viewpoint
509913791,-26.6899268,152.8598576,Baroon Lookout,viewpoint
509913800,-26.6940881,152.8636715,Narrows Lookout,viewpoint
509913947,-38.3723233,144.2775054,Southside,viewpoint
509914568,-38.36672,144.2857624,,viewpoint
509915086,-38.3686317,144.2823849,,viewpoint
510134810,-41.0624433,145.904093,Wilf Campbell Memorial Lookout,viewpoint
510165671,-41.5329435,146.4278091,Alum Cliffs Lookout,viewpoint
510177556,-41.5003587,146.3544775,,viewpoint
512059837,-37.8826053,142.3007643,Mount Rouse,viewpoint
512086416,-37.6104787,141.6888693,Points Reserve Arboretum,attraction
512103438,-35.7823818,150.1452601,Gold Rush Colony,attraction
512284197,-38.3453087,144.3186657,,viewpoint
513069607,-36.2315953,147.1705049,Tallangatta Lookout,viewpoint
513236715,-35.1448433,139.3167973,Frank Jackman Lookout,viewpoint
513239260,-35.1209948,139.2847614,Bunyip,attraction
513420049,-38.3913087,144.2508711,,viewpoint
513460523,-37.8396074,145.0501921,,viewpoint
515910921,-38.3476455,144.3040557,Little Rock Lookout,viewpoint
515911438,-38.3497823,144.3020255,Bird Rock Lookout,viewpoint
515911463,-38.3527976,144.2970103,,viewpoint
515911723,-38.3676926,144.2850201,,viewpoint
519557975,-38.1557663,145.1058011,Oliver's Hill Lookout,viewpoint
522275846,-31.0523025,151.765269,Lions Lookout,viewpoint
522547436,-38.3560164,144.296616,,viewpoint
522548402,-38.3486528,144.3023373,,viewpoint
522548608,-38.3477059,144.303333,,viewpoint
522668035,-37.1027794,149.9534606,Red Point Lookout,viewpoint
523442510,-37.1391428,142.5090333,Venus Baths,attraction
524150044,-38.4682413,144.0533971,Ocean View Lookout,viewpoint
524151754,-38.4682424,144.0694501,Spion Kop,viewpoint
524759787,-34.1855729,142.1766028,Mildura Holiday Houseboats,attraction
527085227,-31.7704932,115.7314662,,viewpoint
528522469,-27.447434,153.0991847,,viewpoint
528588880,-35.0081587,138.6483115,Old Government House,attraction
528655694,-38.3850496,144.2507366,,viewpoint
528657082,-38.3820397,144.2551745,,viewpoint
528665643,-38.374994,144.2693732,,viewpoint
529188129,-34.9565594,138.5866758,SASMEE Model Trains,attraction
529398797,-35.9373044,136.7321701,Callitris Platform,viewpoint
529749393,-30.09175,153.162833,,viewpoint
534092653,-38.3967384,144.2263738,,viewpoint
534093510,-38.3966655,144.236854,,viewpoint
534236201,-33.9104604,114.9965543,Meekadarribee,viewpoint
534243166,-21.6419617,116.3236031,Haul Pak,attraction
534261073,-27.5120314,151.9544194,Mt Kynoch Lookout,viewpoint
534274475,-33.3454613,115.8884691,,viewpoint
534502631,-37.9426397,146.4497753,,viewpoint
534502636,-37.9414894,146.4518281,Walhalla Bandstand,viewpoint
534524321,-37.9389627,146.4491053,Long Tunnel Extended Mine Entrance,attraction
534587849,-33.8106751,151.2736331,,viewpoint
535072887,-34.1328897,151.0147878,,viewpoint
535081116,-38.2870184,144.0516003,Wurdee Boluc Reservoir Lookout,viewpoint
536320452,-37.9290976,141.2850409,,viewpoint
536438635,-37.3701209,144.5975702,,viewpoint
537502787,-31.8874503,116.784631,Mt Brown Lookout,viewpoint
537518061,-35.17075,149.11945,Crinigan's Stone Hut,attraction
537640523,-35.5564877,138.6251391,,museum
537641582,-35.5572004,138.6251832,Victor Harbor Horsedrawn Tram,attraction
538726150,-32.7561056,151.5392462,Darcys Lookout,viewpoint
539307029,-33.5463126,148.9016753,Angullong Vineyard,attraction
539880476,-33.8127551,151.263444,,viewpoint
540012186,-33.7437449,150.2802322,,viewpoint
540012188,-33.744042,150.280302,,viewpoint
540118898,-33.7823388,150.5910271,Red Hands Cave,attraction
540729357,-33.3397357,115.894499,Lower Wellington Weir,attraction
541075512,-33.732029,150.286133,,viewpoint
541403595,-27.4364851,153.5464403,,viewpoint
541403596,-27.4349479,153.5463024,,viewpoint
541403597,-27.4366238,153.5449548,,viewpoint
542891698,-37.716311,144.2495835,,viewpoint
548007375,-31.5141226,150.6668842,Who'd A Though It Lookout,viewpoint
548059590,-32.8676664,149.9510961,Old Rotary lookout,viewpoint
549764852,-33.724385,151.0182389,The Convicts Vista,viewpoint
550219922,-36.0619208,136.7059892,,viewpoint
552935770,-38.2150432,145.3765804,Lighthouse lookout,viewpoint
552935826,-38.2129806,145.4593271,,viewpoint
553414463,-34.6726739,150.7206215,Illawarra Lookout,viewpoint
554073833,-34.4875371,150.3345562,Lambies Well,viewpoint
557988280,-37.2367762,143.1839561,Sugarloaf View,viewpoint
557988324,-37.230093,143.1949684,Red Rock,viewpoint
557988363,-37.2285042,143.2006058,,viewpoint
558681082,-37.2640247,142.8898475,One Tree Hill,viewpoint
559370774,-38.2247771,143.9953455,Barwon Park,attraction
559773908,-26.5620848,153.0839949,,viewpoint
560708651,-37.3950229,146.1403931,Mount Terrible,viewpoint
561057386,-30.8154821,152.9240294,Yarriabini Lookout,viewpoint
561125538,-28.365921,152.760437,Glennies Chair,attraction
561538925,-37.7973569,145.0006176,,viewpoint
562620258,-31.9038838,152.4400186,Apex Lookout,viewpoint
562737925,-33.616867,150.5649989,Grose River Lookout,viewpoint
563633941,-37.1321019,142.3208359,Wallaby Rocks,viewpoint
563653508,-32.4081287,152.2227644,Mountain Lookout,viewpoint
563666224,-26.9239693,152.9476831,Cooee View,viewpoint
564444101,-36.5963657,143.946276,,viewpoint
564517163,-36.5591328,143.8737196,,viewpoint
564618199,-33.4167368,149.777661,,viewpoint
565299954,-37.8269468,145.3530267,,viewpoint
565300809,-37.8280063,145.3528089,SkyHigh Maze,attraction
566151351,-38.1638535,145.9310201,Warragul & District Historical Society Museum,museum
566510641,-39.8811431,147.8236125,,viewpoint
566511197,-40.0561187,148.0808591,Walkers Lookout,viewpoint
566511199,-40.0076815,148.1015331,Tobias Furneaux Lookout,viewpoint
566701872,-37.8610279,144.9056847,HMAS Castlemaine,museum
567843565,-27.6021633,153.3495464,Campbells Wharf Outlook,viewpoint
567845615,-27.60688,153.3682358,,viewpoint
568245994,-28.2013455,153.1842168,10,attraction
568245995,-28.1990701,153.1850732,14,attraction
568245996,-28.1976201,153.1854647,15,attraction
568246288,-28.201697,153.184032,9,attraction
568246290,-28.2002713,153.1831902,5,attraction
568246291,-28.2004487,153.1839462,7,attraction
568247166,-35.0413223,139.3738215,Sunnyside Lookout,viewpoint
568367786,-40.0114296,147.8700981,Shearwater Viewing Platform,viewpoint
568368680,-39.986347,148.190171,Patriarchs Lookout,viewpoint
568420728,-42.6772559,146.7127705,,viewpoint
568725656,-27.6374828,153.2484556,,viewpoint
568839915,-23.7012451,133.8641986,Museum of Central Australia & Strehlow Research Center,museum
569046873,-34.2301894,140.3652958,KOM Bridge lookout,viewpoint
569997027,-32.5573936,115.7318472,Bird Watching Platform,viewpoint
570812830,-33.9300974,151.1936405,George Hanna Museum,museum
571316287,-37.8819443,144.9762094,Point Ormond Lookout,viewpoint
571457953,-31.9874998,115.7535732,,viewpoint
572797894,-27.6111173,153.3540638,Macleay Island Water Tank,attraction
572994916,-39.9984988,147.9166774,40th Parallel Signpost,attraction
572995376,-40.0040933,147.9143874,,viewpoint
573061807,-39.7606488,147.958956,North East River Game Reserve,attraction
573298456,-39.8815606,147.823966,,viewpoint
574172067,-35.5400538,138.636806,Kleinig's Lookout,viewpoint
574190385,-27.6656466,153.0779707,Billabong Outlook,viewpoint
575558333,-27.8288307,114.1108298,Natural Bridge Lookout,viewpoint
575558366,-27.82343,114.1126378,Island Rock Lookout,viewpoint
575558385,-27.7681067,114.1292647,Eagle Gorge Lookout,viewpoint
575862881,-34.1176072,150.9731063,,viewpoint
575862957,-34.112986,150.9724706,,viewpoint
576491070,-26.0923837,113.5801327,Eagle Bluff,viewpoint
576491078,-26.0910468,113.5794649,Eagle Bluff,viewpoint
576843128,-32.5216253,115.7117587,,viewpoint
576843153,-32.5247178,115.7181117,,viewpoint
576883149,-36.7197004,146.8179962,Falls Lookout,viewpoint
576883293,-36.7142062,146.8253486,Marriotts Lookout,viewpoint
576983980,-35.766283,149.0012611,Hospital Hill Lookout,viewpoint
577032915,-31.9917007,151.998242,Mograni Lookout,viewpoint
577265772,-32.0248662,115.4509396,,viewpoint
577458140,-33.4755644,151.342931,Mount Pleasant Lookout,viewpoint
577520970,-37.819667,144.9754744,,viewpoint
577556061,-40.0011241,147.898475,Furneaux Museum,museum
579541581,-40.0816358,148.2737217,,viewpoint
580014052,-22.3608227,118.2883706,Junction Pool Lookout,viewpoint
580014065,-22.3600293,118.2862886,Amphitheatre,attraction
580020954,-22.4773723,118.5618852,Three Ways Lookout,viewpoint
581213698,-30.7432672,116.8119579,Reynoldson Reserve,attraction
581438059,-33.3107579,117.3384506,Giant Ram,attraction
581903216,-20.7042256,140.5086031,John Flynn Place,museum
581930268,-40.2002268,148.0712277,,viewpoint
582441020,-27.5102129,153.2890665,Cleveland Point Lighthouse,attraction
582441448,-31.7275405,115.761664,,viewpoint
582522346,-40.2025801,148.2477796,,viewpoint
582540521,-42.5898395,148.0853474,Reservoir,viewpoint
582709185,-25.2831948,152.8484522,Hervey Bay Historical Village & Museum,museum
582845251,-37.8429405,144.9332036,,viewpoint
583223295,-36.4187958,146.7118771,Murmungee Lookout,viewpoint
583443570,-26.0939396,151.43572,Boondooma Dam,viewpoint
583464916,-26.5759237,152.3215452,Landcruiser Mountain Park,theme_park
583479062,-27.0864802,152.6883611,Araucaria,attraction
583522752,-23.4075842,150.5003883,Santa Gertrudis Bull,attraction
583522753,-23.4076477,150.5011377,Romagnola Bull,attraction
583522754,-23.378917,150.479617,Droughtmaster Bull,attraction
583522756,-23.3431352,150.5206535,Brahman bull,attraction
583526115,-40.1221204,148.0146338,,viewpoint
583553623,-28.1889345,153.2699283,,viewpoint
586090727,-35.19912,148.6041,Pompey Pillar,attraction
586450261,-35.0604307,148.1090322,Mount Parnassus Lookout,viewpoint
587645354,-33.5533965,149.5135155,Vale Creek Wines,attraction
589184653,-27.0915202,152.6632558,Somerset Lookout,viewpoint
589184674,-27.0906979,152.6630573,,viewpoint
589906566,-41.6597226,145.9400256,Crater Peak,viewpoint
590034829,-41.6759141,145.9544026,,viewpoint
593406547,-41.59471,145.930554,Pencil Pine Lookout,viewpoint
594365265,-37.8131993,144.9743546,Old Treasury Building Museum,museum
595504813,-37.8085973,144.9754517,Fire Services Museum,museum
595574325,-37.1770314,142.5400303,Lake Bellfield Viewing Point,viewpoint
595868730,-37.608223,141.6884082,Peter Francis Points Arboretum,viewpoint
595869093,-37.494769,141.7208166,Giant Rock,viewpoint
595962116,-37.6760788,141.8416269,Wannon Falls,viewpoint
595962342,-37.6565228,141.9239507,Nigretta Falls,viewpoint
595962953,-35.1177641,117.8916218,Natural Bridge Lookout,viewpoint
595962962,-35.1185485,117.8923284,The Gap Lookout,viewpoint
595963149,-35.114196,117.9504991,Stony Hill Lookout,viewpoint
595963150,-35.1143867,117.9509545,Stony Hill Lookout,viewpoint
595963192,-35.1024121,117.967393,Salmon Holes Lookout,viewpoint
596083301,-37.9376357,141.8849346,Tumuli Laver Blisters,viewpoint
596083379,-37.9184726,141.9471818,Harman's Valley Lookout,viewpoint
596083410,-37.9085004,141.9746813,Harman Cave 1,viewpoint
596083413,-37.9084622,141.9753529,Harman Cave 2,viewpoint
596083554,-37.9074393,141.9771401,Bridge Cave 1,viewpoint
596089810,-38.0591651,141.9223331,Lake Surprise Lookout,viewpoint
596136757,-38.3459442,141.6077191,Maritime Discovery Centre,attraction
596836924,-28.099164,153.3265716,Gold Coast War Museum,museum
597558921,-37.8635895,145.0614102,,viewpoint
597723831,-33.3239631,115.6492682,,viewpoint
597723844,-33.3228539,115.6495547,,viewpoint
598020949,-37.4674467,143.2452925,Christmas Tree,attraction
598143704,-37.30548,143.270415,Raglan Falls Lookout,viewpoint
598158283,-35.5273746,138.6929325,,viewpoint
598402607,-34.9757749,116.8943447,,viewpoint
598402608,-34.9762246,116.8938985,,viewpoint
598402615,-34.9767665,116.8946724,,viewpoint
598402616,-34.9762981,116.8950344,,viewpoint
598402617,-34.9757374,116.8950175,,viewpoint
598402629,-35.0238676,117.2352063,,viewpoint
598404500,-34.9441334,116.8008761,,viewpoint
598514741,-37.9897665,140.9930406,,viewpoint
598514742,-37.9895806,140.9932864,,viewpoint
599399952,-37.9003155,145.9843862,Noojee trestle bridge,attraction
599547975,-37.8435024,140.7733541,Blue Lake,viewpoint
599547985,-37.8429199,140.7748122,Blue Lake Lookout,viewpoint
599548048,-37.8350685,140.7625658,Potters Point,viewpoint
599895972,-31.9244274,115.8259235,,viewpoint
599960010,-38.1383465,141.1801623,Beach Lookout,viewpoint
599960283,-38.2943999,141.6149045,Frank Lodge Lookout,viewpoint
599970430,-38.4311243,141.5428038,,viewpoint
599970443,-38.4307206,141.5423501,,viewpoint
600174861,-41.7787288,145.5411511,Rosebery Heritage Center,museum
600206018,-38.3823702,141.370169,Petrified Forest,viewpoint
600206039,-38.3790928,141.3664484,Blowholes Lookout,viewpoint
600241198,-35.4868345,148.9345074,,viewpoint
600528767,-38.7042244,146.1415976,Mount Nicoll Lookout,viewpoint
600865765,-27.2965928,152.7283738,Wivenhoe Outlook,viewpoint
601256225,-37.9653472,145.0114464,,viewpoint
601264239,-34.4441049,137.9027483,Ardrossan Lookout,viewpoint
601280829,-37.5037108,145.879971,Marysville Lookout,viewpoint
601349099,-38.033909,141.276666,Glenelg River,viewpoint
601349103,-38.0340839,141.2767535,Glenelg River,viewpoint
602099395,-37.5585033,141.6865781,,viewpoint
602415139,-27.9138856,153.3562355,Coombabah Lake Birdhide,viewpoint
602417666,-42.9972003,147.9339438,Pirates Bay Lookout,viewpoint
602418068,-43.0421258,147.9509389,Tasman Arch,attraction
602481013,-36.4341568,146.434614,Milawa Cheese Factory,attraction
602907413,-38.4630545,145.2828454,Conservation Hill,viewpoint
602907470,-38.4587,145.2943661,Diamond Dolly Quarry Lookout,viewpoint
603037805,-38.6704163,145.7906067,,viewpoint
603431424,-34.89766,148.7361,Lake Burrinjuck Leisure Resort,attraction
603593731,-38.5378459,146.2507358,Turtons Creek Falls,viewpoint
603688616,-32.0189473,115.7852062,,viewpoint
604277926,-34.1768036,140.7804806,Lookout,viewpoint
604327489,-36.7396305,146.9630145,Huggins Lookout,viewpoint
605181439,-41.2407998,146.8777078,Moores Hill Winery,attraction
605190650,-43.0007538,147.0440277,Home Hill Wines,attraction
605208500,-37.9079501,145.1383378,,viewpoint
605217239,-41.2571495,147.1927377,Providence Wines,attraction
605217240,-41.2516809,147.1851846,Leaning Church Wines,attraction
606335046,-38.3113158,144.6666311,Cheviot Hill,viewpoint
606335047,-38.3077042,144.6607946,Eagle's Nest,viewpoint
606366548,-36.7593023,146.3552909,,viewpoint
607214030,-36.9549036,140.738151,Steam Locomotive V 9,attraction
607929561,-31.8901867,116.6922986,York Olive Oil Co,attraction
608647793,-36.4573641,142.0299571,Steam Locomotive J 539,attraction
609061017,-32.3031488,150.0510469,Lee's Pinch Lookout,viewpoint
610160653,-36.3897894,146.2374213,Quarry Lookout,viewpoint
610533731,-36.8862513,147.0915813,Tobias Gap,viewpoint
610654560,-26.5442249,153.1001878,,viewpoint
610686957,-12.210226,136.8287532,Rainbow Cliffs,viewpoint
610901403,-37.1474972,146.4588093,Sleepy Hollow,viewpoint
610957152,-38.479025,144.8875802,Lookout,viewpoint
611557447,-36.9652533,147.6298278,Blowhard View Point,viewpoint
611984584,-37.8166364,144.9618745,ANZ Banking Museum,museum
612003449,-41.4969616,147.2094982,Bundaleera Wines,attraction
612007235,-41.5059008,147.204976,Josef Chromy Wines,attraction
612007241,-41.5034944,147.1940004,Jinglers Creek Wines,attraction
612764041,-33.4650787,115.9109396,Gnomesville,attraction
613362118,-38.2621572,146.1338376,Sunny Creek Fruit And Berry Farm,attraction
613995122,-38.1460334,145.1764862,McClelland Gallery and Sculpture Park,gallery
614011731,-37.875576,145.2858116,,viewpoint
614165387,-32.9748458,149.8760754,Mount Ilford Winery,attraction
614475994,-36.3349113,146.2163801,Briens Gorge Falls,attraction
614546576,-32.3909113,150.5156141,James Estate Winery,attraction
615073084,-34.6521709,150.473662,Starkeys Lookout,viewpoint
615073119,-34.6487696,150.4739221,The Grotto,viewpoint
615079444,-37.908413,145.3649364,,viewpoint
615995325,-37.6698193,145.087287,,viewpoint
617538065,-38.4238287,145.0783239,,viewpoint
617920874,-38.2918298,144.3646583,Tiger Moth World,theme_park
617928599,-31.9951509,115.7502611,Cottesloe Pylon,attraction
618011217,-31.5833366,133.8215884,Rock Hole,attraction
619159234,-34.8835105,147.5790346,Junee Roundhouse Museum,museum
619480340,-31.5520417,134.0136559,Lake,viewpoint
620994290,-37.9654103,145.6335566,Four Brothers Rocks,viewpoint
621220616,-31.8157941,115.737219,,viewpoint
621220646,-31.818043,115.7384729,,viewpoint
621514993,-38.1577791,145.1570188,,viewpoint
621867600,-28.5001294,114.5996739,Oakabella Homestead,museum
622296064,-38.2876231,144.726929,Chinaman's Hat,attraction
622297685,-38.3317092,144.7012505,,viewpoint
622774896,-34.6535616,150.472964,Renown Lookout,viewpoint
622982145,-21.6647025,115.9093525,,viewpoint
623939752,-33.7692665,150.7677196,Wagon,attraction
623962759,-38.5132708,145.2947926,,viewpoint
623964229,-38.5173632,145.3063101,,viewpoint
623966771,-38.513871,145.297389,,viewpoint
626259676,-37.8188397,144.9576693,Rialto Observation Deck,viewpoint
627184908,-33.39717,115.9315403,,viewpoint
630366890,-36.4639558,146.2213866,Kate's Cottage,museum
631343909,-36.4051352,146.5445606,Everton Station,attraction
631464853,-31.0833498,150.9466559,Oxley Lookout,viewpoint
631477396,-37.7324012,145.2269234,,viewpoint
631654432,-33.5800335,151.3298996,Gledhill Lookout,viewpoint
632211320,-33.7837931,150.6277051,Tunnel View Lookout,viewpoint
632211321,-33.8417786,150.5798649,Erskine Lookout,viewpoint
632214477,-33.7809749,150.6380762,Mount Portal Lookout,viewpoint
632245418,-33.4077675,149.5759054,Bathurst Miniature Railway,attraction
633145542,-33.422842,151.3480185,Nurrunga Point,viewpoint
633147656,-33.4242939,151.335623,,viewpoint
634645869,-35.2486986,150.5359543,Inyadda Beach,viewpoint
634781355,-35.5369222,138.6841331,Freeman Lookout,viewpoint
634804454,-35.2549713,150.5263124,Inyadda Beach,viewpoint
634804544,-35.2672022,150.5129192,,viewpoint
635682449,-36.4795666,148.2778175,Kosciusko Lookout,viewpoint
636127570,-35.5355627,138.6729359,,viewpoint
638678867,-33.4254591,151.3550063,Yaruga Lookout,viewpoint
640555696,-35.2067066,149.0859682,Palmerville Village Historic Site,attraction
641268921,-37.8418155,140.7747508,Hoo Hoo Lookout,viewpoint
641273650,-37.8403003,140.756282,Centenary Tower Lookout,viewpoint
641282345,-37.8439291,140.7690725,Leg of Mutton Lake Lookout,viewpoint
641282347,-37.8445967,140.7708815,Blue Lake Lookout,viewpoint
641291393,-37.843422,140.7605106,Lions Lookout,viewpoint
641291400,-37.8446279,140.7658156,Marks Lookout Park area,viewpoint
642333245,-37.811722,144.971173,Pellegrini's,attraction
643140365,-34.9144171,138.6055752,Reptile House,attraction
643140696,-34.9140152,138.6066428,Panda Exhibit,attraction
643141141,-34.9126861,138.6056704,Nocturnal House,attraction
647629307,-41.660333,145.952845,Marion's Lookout,viewpoint
647637181,-41.651365,145.9503541,,viewpoint
647652381,-41.7560869,145.948183,,viewpoint
647678764,-41.807943,146.0511809,,viewpoint
647695394,-41.863984,146.0580786,Pelion Gap,viewpoint
647712260,-41.8921118,146.0823948,Kia Ora Falls,attraction
647732966,-41.9445071,146.0469856,Labyrinth Lookout,viewpoint
647741472,-41.9561303,146.0638808,Cephissus Falls Viewpoint,viewpoint
647773945,-41.908132,146.1201569,Dalton Falls,viewpoint
648876138,-36.4399611,145.2225049,Tatura Irrigation and Wartime Camps Museum,museum
650934750,-27.3727827,152.1779476,Gus Beutel Lookout,viewpoint
651396688,-27.2598137,152.1167601,Koonin Lookout,viewpoint
652490635,-24.6511361,150.9940011,Shamrock mine,attraction
652993384,-37.6656877,144.9760256,,viewpoint
653304921,-37.7806616,145.6094659,,museum
654113174,-34.8971158,138.5732628,Former Hindmarsh Incinerator,attraction
656344586,-38.6224756,142.9318502,London Bridge,viewpoint
656344596,-38.6222725,142.9316948,London Bridge,viewpoint
656344609,-38.6218062,142.9316164,London Bridge,viewpoint
656344640,-38.6229972,142.9322549,London Bridge,viewpoint
656866269,-37.872461,145.0940637,,viewpoint
661992445,-42.8628201,147.155962,Myrtle Forest Falls,viewpoint
662811108,-23.3670715,150.5156636,Slab Hut,attraction
663114309,-37.747259,144.8478168,,viewpoint
663479931,-37.8252613,144.9678314,Artspace Gallery,gallery
663479932,-37.8255106,144.967941,Fiona & Sidney Myer Gallery,gallery
665692498,-33.4284852,151.3490893,Ouraka Lookout,viewpoint
665739580,-38.6684607,143.5691499,,viewpoint
665739597,-38.6685321,143.568267,,viewpoint
665740297,-38.6493568,143.6117705,Beauchamp Falls,attraction
665795573,-27.3962228,152.6088043,Wivenhoe Spillway Viewpoint 2,viewpoint
665795577,-27.3906168,152.5955059,Auxilliary Spillway Viewpoint,viewpoint
665795582,-27.3955226,152.6094587,Wivenhoe Spillway Viewpoint,viewpoint
665959804,-31.9149734,116.1935902,,viewpoint
666672676,-32.9363186,151.6909333,Flying Foxes,viewpoint
667288272,-34.296822,150.9253434,Sublime Point Lookout,viewpoint
667747194,-35.9880782,146.3612508,winery,attraction
667787194,-33.4222546,149.557052,Old Ammunition Factory Bomb Shelter,attraction
668725939,-35.8587241,150.1770214,,viewpoint
668766610,-35.7356767,150.1699956,Round Hill Lookout,viewpoint
669407712,-36.3782745,150.0773593,Camel Rock lookout,viewpoint
670147424,-34.6719641,150.8636898,Kiama Blow Hole Lookout,viewpoint
670147428,-34.6718796,150.8629964,George Bass Lookout,viewpoint
670305958,-27.6495291,153.1406029,,viewpoint
670324569,-35.1035,138.7518769,Jupiter Creek Gold Diggings,attraction
670328037,-35.0830858,138.7643839,Chapel Hill Gold Diggings,attraction
670331001,-36.5831266,150.0512805,,viewpoint
670331040,-36.5827057,150.0531083,,viewpoint
670333770,-33.7621413,150.6391466,Lapstone Zig Zag,attraction
670333771,-33.7611214,150.6390688,Lucasville Railway Station,attraction
670336184,-36.8458418,149.934618,,viewpoint
671071504,-33.4240288,151.3593639,,viewpoint
671167448,-34.4322357,150.4801864,All Aboard Braemar Model Railway,attraction
671195744,-37.068667,149.9086534,Eden Killer Whale Museum,museum
671338181,-36.451877,150.0717526,Michael Lerner Lookout,viewpoint
671365948,-33.863451,151.2084318,Australian Securities Exchange,attraction
671970035,-36.6447567,149.8237635,Bega Valley Lookout,viewpoint
674681206,-37.5572309,144.3598141,Mount Blackwood communications tower,viewpoint
676497087,-37.3909068,144.1198954,Sailors Falls,attraction
677281389,-28.0721744,153.4467527,South Nobby Headland,viewpoint
677281393,-28.07171,153.4462971,South Nobby Headland,viewpoint
678302346,-29.0089242,134.7596362,Old Timers Mine & Museum,attraction
678302349,-29.009359,134.7625918,Opal Cave,attraction
679616442,-33.8863906,150.5973364,,viewpoint
679620892,-34.6669916,150.5043364,Manning Lookout,viewpoint
683047202,-36.4075536,148.3102856,,viewpoint
683824642,-38.6191192,142.996601,,museum
684482274,-33.8572172,121.8310465,Pink Lake Lookout,viewpoint
684996923,-36.3210813,146.6707248,Reedy Creek Sluice Lookout,viewpoint
684997012,-36.3182931,146.6687213,Woolshed Falls,viewpoint
685024617,-33.6281728,150.3120422,Breakfast Rock Lookout,viewpoint
685200369,-33.9739391,122.168188,,viewpoint
685207720,-34.0562186,137.6142157,Wheal Hughes Copper Mine,attraction
685431688,-25.248566,130.9621259,,viewpoint
685431720,-25.2482846,130.9631881,,viewpoint
685431825,-25.3675777,131.0639704,Minymaku Platform,viewpoint
686512267,-35.1308454,147.3672185,Willans Hill,attraction
686512268,-35.1285807,147.3741532,,viewpoint
686512300,-33.749723,150.6693935,Arms of Australia Inn Museum,museum
686531039,-39.085008,146.3839862,Halfway Hut,attraction
686532496,-37.1446289,146.4259142,,viewpoint
686537688,-37.9025719,147.717099,Point Fullarton Wetlands,viewpoint
687671778,-37.8837402,144.7975365,,viewpoint
688697644,-37.8872113,147.6779115,Eagle Point Bluff Lookout,viewpoint
689957646,-33.6369183,150.274403,Centennial Glen (The Grotto),attraction
689957955,-33.6278419,150.2721257,Lambert's Lookout,viewpoint
690672785,-36.628362,144.2481536,,viewpoint
691125167,-33.6730354,150.2743675,Sunbath,attraction
691125168,-33.6758027,150.2773978,The Colosseum,attraction
691125312,-33.6728747,150.2736915,Tuckers Lookout,viewpoint
692838399,-35.2955952,148.0572193,Adelong Falls Lookout,viewpoint
692959857,-27.6581649,153.3660187,Main Channel View,viewpoint
692967636,-26.3340648,152.6206528,Cooke's Knob,viewpoint
694080325,-36.1328545,146.930561,Huon Hill Lookout,viewpoint
694183262,-21.6479923,115.0971226,,viewpoint
694183263,-21.6344097,115.1086561,,viewpoint
694183270,-21.6388875,115.1144068,,museum; information
694690109,-16.8495013,145.6691996,,viewpoint
695160873,-21.719028,115.0982718,,viewpoint
695180384,-37.9599202,146.9674708,Birdhide,viewpoint
696329739,-37.8249139,145.1636103,,viewpoint
696338344,-26.7818291,152.8810208,View of Glasshouse Mountains,viewpoint
697301839,-37.9842335,147.097235,The Knob Lookout,viewpoint
698081093,-34.2426273,150.9663075,,viewpoint
698283855,-37.8777983,147.8583401,Cantrill's Lookout (formerly known as Hot Pools Lookout),viewpoint
698414829,-37.8816585,147.964312,Jemmie's Point,viewpoint
698525692,-37.7239773,148.0875004,Nowa Nowa Gorge Lookout,viewpoint
699545140,-33.6789533,138.9237662,Powder Magazine,attraction
699545190,-33.6811881,138.9284804,Morphett's Engine House,attraction
699545256,-33.6806402,138.9323369,Town Lookout,viewpoint
699545263,-33.6762626,138.9256153,Burra Copper Mine Lookout,viewpoint
699545331,-33.6762893,138.9287388,Town Lookout,viewpoint
699545348,-33.67677,138.9313294,Peacock's Chimney National Trust,attraction
699545451,-33.6748667,138.9373922,Burra Smelting Works Historic Site - 1849,attraction
699588143,-33.7328822,150.3120981,Queen Elizabeth Lookout,viewpoint
699760284,-16.0887146,128.7600913,Durack House,attraction
699764711,-37.728912,148.4414305,Snowy River Lookout,viewpoint
699771991,-16.1165652,128.7393629,Reservoir Lookout,viewpoint
699781412,-16.1201521,128.7397867,,viewpoint
701802862,-24.716791,150.9930481,Gorge Lookout,viewpoint
701831361,-24.6523409,150.9827961,Cania Dam Lookout,viewpoint
701831362,-24.7107311,150.9944371,Dripping Rock,attraction
701831363,-24.716099,150.9927665,Dragon Cave,attraction
701831371,-24.7076651,150.9966311,The Overhang,attraction
702390534,-36.7254659,149.9784265,,viewpoint
703556674,-34.4286386,150.4353922,,viewpoint
703576266,-37.7116615,145.2911305,,viewpoint
704264975,-33.7099749,150.2892583,Norths Lookout,viewpoint
704269902,-33.6264936,150.3111267,George Phillips Lookout,viewpoint
704958057,-22.3281551,113.8199829,,viewpoint
705946038,-31.8941784,152.381612,Brushy Cutting Lookout,viewpoint
706024318,-36.0446055,146.4508114,Chambers Rosewood Vineyards,attraction
706128577,-36.8458366,146.3706693,Powers Lookout 2,viewpoint
706128595,-36.8449383,146.3719433,Powers Lookout,viewpoint
706953752,-37.6700431,145.0863984,,viewpoint
708310089,-37.1848216,145.7147393,Alexandra Timber Tramway and Museum,museum
708535121,-30.3226123,152.7145055,Dangar Falls Lookout,viewpoint
709554087,-33.8179304,150.1922836,Knights Deck Lookout,viewpoint
711363957,-34.4135906,150.4322057,Nattai Gorge lookout,viewpoint
712050906,-33.6532111,151.1579799,,viewpoint
712050941,-33.6465521,151.1611515,,viewpoint
712050995,-33.649007,151.1479491,Firefighters Rest,viewpoint
716723919,-36.776349,146.7674373,The Horn,viewpoint
716741088,-36.7437012,146.8032937,Torpedo Rock,attraction
717582146,-31.7205657,151.8594594,,viewpoint
718622538,-37.2480329,145.1701073,Murchison Hill Lookout,viewpoint
718959009,-37.8653541,144.8796663,,viewpoint
720627045,-28.1897797,153.2709362,Purling Brook Falls Lookout,viewpoint
722150023,-33.3015741,116.0505807,BMF Log,attraction
723978808,-28.1560314,153.1232926,Kamarun Lookout,viewpoint
724986703,-33.5800411,151.3086353,,viewpoint
726937958,-33.7283041,150.3367651,,viewpoint
727117373,-41.0696664,145.9523268,,viewpoint
727421388,-27.5057188,153.0783756,Whites Hill,viewpoint
728168560,-32.9087312,151.7618891,,viewpoint
728322006,-41.0696219,145.9519191,Round Hill Lookout,viewpoint
728340926,-30.2762206,150.1550843,West Kaputar Rock Lookout,viewpoint
728340928,-30.281869,150.1342279,Coryah Gap,viewpoint
728344364,-30.3125616,149.5641046,CSIRO Paul Wild Observatory,attraction
729667401,-37.9431592,145.0808923,Dragonfly Lookout,viewpoint
729783666,-33.358682,116.1478816,Collie Museum,museum
730785253,-20.3491049,148.972231,,viewpoint
730785662,-20.3477862,148.9764182,Passage Peak,viewpoint
730786280,-20.3504853,148.9557453,Resort Lookout,viewpoint
732179995,-32.8387178,151.2813233,Mt Bright Lookout,viewpoint
732190832,-32.8526052,151.28316,Bimbadeen Lookout,viewpoint
733999758,-37.5539222,143.873273,Black Hill Lookout,viewpoint
734002273,-37.5524877,143.8730969,Black Hill Lookout,viewpoint
734788024,-36.7274572,146.9360768,Tower Hill Lookout,viewpoint
737147623,-33.733846,150.1236443,,viewpoint
738232389,-37.9127806,145.4178712,,viewpoint
740718114,-33.7631011,151.2401583,Heartbreak Hill,attraction
742630935,-33.8181282,151.1437846,,viewpoint
743322923,-33.8588995,151.2086515,The Rocks Discovery Museum,museum
745570814,-33.5817204,151.3316363,,viewpoint
745570823,-33.5815943,151.3319477,,viewpoint
745570828,-33.5796918,151.3277774,,viewpoint
746321061,-37.1223985,142.5035428,Boroka Lookout,viewpoint
752208872,-37.4312345,144.2973521,Blue Mountain,viewpoint
752223282,-37.9514813,145.0025148,,viewpoint
760151248,-28.1883917,153.2137707,Kooloobano Point,viewpoint
760151254,-28.199304,153.2112059,,viewpoint
760151279,-28.1994258,153.2089086,Charraboomba Rock,viewpoint
760156101,-28.2164622,153.2016988,Ballanjui Cascades (upper),viewpoint
760283949,-35.5498895,138.8826786,,viewpoint
761130167,-28.625379,122.4031539,Laverton Outback Gallery,museum
762111144,-12.4372686,130.8332833,Museum and Art Gallery of the Northern Territory,museum
764237292,-33.3849087,115.9437812,Viewpont,viewpoint
764240726,-33.3847715,115.9432501,,viewpoint
765658680,-26.3853382,153.0943002,First Point,viewpoint
765658682,-26.3794368,153.1010165,Boiling Pot,viewpoint
765662619,-26.3774279,153.1082075,Dolphin Point,viewpoint
765716038,-26.3792061,153.1194593,Hell's Gates,viewpoint
765727911,-26.3916646,153.118542,Devils Kitchen,viewpoint
765740575,-26.3911211,153.0956297,Laguna Lookout,viewpoint
767001547,-41.297921,146.3040079,House of Hargrave,attraction
769483115,-37.3521461,144.9669289,Bylands,museum
771113330,-41.0353369,145.3758972,,viewpoint
772357603,-31.4584936,138.7361383,Stokes Hill Lookout,viewpoint
772439524,-31.5144889,138.6128751,Wilpena Homestead,attraction
772439525,-31.5160174,138.6162427,Wilpena Station Woolshed,attraction
772439526,-31.71599,138.5418749,Elder Range Lookout,viewpoint
772439527,-31.7262,138.519974,Arkaba Hill Lookout,viewpoint
772561238,-39.0404117,146.3448966,Mt Oberon Lookout,viewpoint
773672368,-32.7164965,152.1871007,,viewpoint
775353836,-38.782147,143.4276685,Castle Cove Lookout,viewpoint
776077911,-30.3117696,139.3368764,Mining Museum,museum
776166328,-33.7080555,151.1729611,,viewpoint
778177306,-30.2837391,139.3333218,Arkaroola Waterhole,viewpoint
778177310,-30.3045456,139.4015787,Stubbs Waterhole,viewpoint
778177312,-30.3006829,139.397137,,viewpoint
780682938,-37.9517137,144.425983,,viewpoint
784016799,-30.2800427,138.3619958,Talc Alf Carvings,attraction
784016981,-30.5956212,138.9352589,Iga-Warta Resort,attraction
787189605,-35.4056745,149.027111,Red Rocks Gorge Lookout,viewpoint
789374125,-37.6687841,144.5659509,,viewpoint
792278378,-41.1578558,145.8037257,,viewpoint
792283548,-23.3592699,119.7277322,Newman Visitor Centre,attraction
792350977,-23.3590138,119.7271524,Newman Museum,museum
793932619,-32.0940131,115.7662976,Cultural Council Lookout,viewpoint
794144458,-35.544209,148.8911286,Orroral Valley Lookout,viewpoint
794144586,-35.5366011,148.8873692,Square Rock,viewpoint
796663085,-34.3189668,149.5337705,Brian's Lookout,viewpoint
797891426,-27.6463615,153.4005104,Canaipa Hill,viewpoint
798464210,-31.8933958,116.0035735,Midland Workshops Museum,museum
799136383,-35.6945837,136.9093051,Billygoat Falls lookout,viewpoint
800024152,-23.3625715,119.726225,lookout (2.0m),viewpoint
800055143,-35.7505869,148.9536654,Yankee Hat Rock Art Site,attraction
802120005,-37.7121291,145.8080329,Little Peninsula Tunnel,attraction
802145822,-37.7048238,145.8195338,Big Peninsula Tunnel,attraction
802666967,-37.8794673,147.9613475,,viewpoint
802666995,-37.1396326,147.4806034,Volker's Lookout,viewpoint
803523314,-28.2206688,153.2730628,Canyon Lookout,viewpoint
804190638,-36.9496973,149.9424207,Haycock Point,viewpoint
804952088,-34.9185864,135.6845647,,viewpoint
806354788,-34.0643354,150.7466634,,viewpoint
806449645,-38.287523,142.3656358,Former Koroit Station,attraction
809525774,-38.5464667,143.9621777,cascades,viewpoint
809611278,-12.86485,132.7047475,Mirrai Lookout,viewpoint
810003954,-38.6182034,142.9147699,,viewpoint
811310596,-37.0535434,142.7879324,Stawell Lookout Pavilion,viewpoint
814369287,-27.7473685,114.1396926,Pederick Lookout,viewpoint
814369331,-27.7467052,114.139371,,viewpoint
814369355,-27.7457989,114.1397205,Red Bluff Lookout,viewpoint
814369383,-27.7469352,114.1393813,,viewpoint
814419603,-34.1176986,136.3470987,,attraction
816245269,-33.3672419,149.1311747,Huntley Berry Farm,attraction
816488920,-35.2205581,146.7136248,Greens Gunyah Museum,museum
816607646,-35.5477473,146.5077567,,viewpoint
818384281,-26.8185509,152.9527201,SB,attraction
818619058,-27.5530171,114.4460634,Nature's Window,viewpoint
818620571,-27.8115176,114.4739277,Ross Graham Lookout,viewpoint
820086715,-28.387125,114.4380024,,viewpoint
822906232,-28.0744142,152.5026637,,viewpoint
822922368,-28.0781644,152.5021226,Baby View,viewpoint
822922514,-28.0742596,152.5062693,Slab Rock,viewpoint
824029981,-38.146372,147.0869283,Sale Swing bridge,attraction
825898434,-29.2158264,141.3915195,Waka Clay Pan,viewpoint
826042357,-35.9972352,146.582021,Mount Prior Vineyard,attraction
826862422,-36.0099666,146.6061305,Gooramadda Olives,attraction
828148884,-32.7757224,151.3001905,Brokenwood Wines,attraction
828162629,-32.7912605,151.284013,Tulloch Wines,attraction
829593804,-35.9935111,146.4097951,All Saints Winery,attraction
829594190,-36.0545194,146.455514,Rutherglen Lake,viewpoint
829823214,-36.0613457,146.4778419,Jones Winery & Vineyard,attraction
831041144,-23.689218,132.6767174,Glen Helen Gorge,attraction
831201041,-38.4680026,144.104468,Split Point Lighthouse,attraction
831201898,-38.4300034,144.1474478,Hutt Gully,viewpoint
831201965,-38.4690156,144.1047883,,viewpoint
831202200,-38.468199,144.1048101,Eagle Rock Lookout,viewpoint
831202392,-38.4364666,144.1276505,Urquhart Bluff,viewpoint
831202494,-38.4659354,144.1022045,Bark Hut,attraction
831974443,-32.7777316,151.3360333,Hungerford Hill Wines,attraction
832067268,-32.7729128,151.2729189,Tyrrell's Wines,attraction
832358672,-30.1493705,115.1220197,,viewpoint
832358735,-30.1647427,115.1993206,Iain Wilson Lookout,viewpoint
832358749,-30.1626845,115.2017672,,viewpoint
832360323,-29.940458,115.1003991,Stockyard Gully National Park,attraction
832428965,-38.4646035,144.8782196,Lookout,viewpoint
832432259,-38.4821839,144.886717,Lookout,viewpoint
832432445,-32.6447057,151.4213609,Dalwood Estate,attraction
832507609,-38.4852682,144.0288367,Cinema Point,viewpoint
832508999,-38.4595386,144.1069639,Eagles Nest Fine ArtGallery,attraction
832509677,-38.4966189,144.0122904,Big Hill,viewpoint
832509817,-18.2239655,144.6678188,Kalkani Crater,viewpoint
832509828,-38.4821417,144.0322021,Devil's Elbow,viewpoint
833994653,-31.7383885,115.7770198,Lake Joondalup Viewing Platform,viewpoint
834958309,-27.0599718,152.9474246,Caboolture Historical Village,museum
835172751,-33.5484719,115.0118156,,viewpoint
835177125,-33.5599376,115.0074245,,viewpoint
835333943,-17.2462578,145.6392397,Lake Barrine Boat Cruise,attraction
835333948,-17.2860335,145.5739808,Curtain Fig Tree,attraction
837135633,-20.2925145,148.6975663,HoneyEater Lookout,viewpoint
837242006,-17.4257287,145.4865529,Mount Hypipamee Crater,attraction
